% ref pos   : -2843600.8781|  4805405.9568|  3073120.9033
%  UTC                 |     x-ecef(m)|     y-ecef(m)|     z-ecef(m)|  Q| ns|  sdx(m)|  sdy(m)|  sdz(m)| sdxy(m)| sdyz(m)| sdzx(m)|age(s)| ratio
2023/05/18 12:15:02.000| -2843617.8978|  4805399.4877|  3073091.2248|  1| 32|  0.0071|  0.0070|  0.0039| -0.0064|  0.0047| -0.0046|  0.00|   3.0
2023/05/18 12:15:07.000| -2843617.2760|  4805399.2018|  3073091.1599|  2| 32|  0.6997|  0.6902|  0.3869| -0.6314|  0.4611| -0.4533|  5.00|   2.3
2023/05/18 12:15:12.000| -2843617.8982|  4805399.4883|  3073091.2258|  1| 32|  0.0071|  0.0070|  0.0039| -0.0064|  0.0047| -0.0046|  0.00|   3.2
2023/05/18 12:15:17.000| -2843617.0595|  4805398.8620|  3073091.0679|  2| 32|  0.6997|  0.6898|  0.3870| -0.6311|  0.4610| -0.4533|  5.00|   1.8
2023/05/18 12:15:22.000| -2843617.8943|  4805399.4852|  3073091.2230|  1| 32|  0.0071|  0.0070|  0.0039| -0.0064|  0.0047| -0.0046|  0.00|   3.4
2023/05/18 12:15:27.000| -2843617.6898|  4805399.1910|  3073091.3994|  2| 32|  0.6997|  0.6893|  0.3871| -0.6309|  0.4609| -0.4532|  5.00|   2.4
2023/05/18 12:15:32.000| -2843617.8956|  4805399.4866|  3073091.2253|  1| 32|  0.0071|  0.0070|  0.0039| -0.0064|  0.0047| -0.0046|  0.00|   3.1
2023/05/18 12:15:37.000| -2843618.2748|  4805399.5722|  3073091.4865|  2| 32|  0.6996|  0.6889|  0.3872| -0.6306|  0.4608| -0.4532|  5.00|   2.3
2023/05/18 12:15:42.000| -2843617.8965|  4805399.4884|  3073091.2259|  1| 31|  0.0072|  0.0072|  0.0041| -0.0065|  0.0049| -0.0047|  0.00|   4.0
2023/05/18 12:15:47.000| -2843617.7261|  4805398.7100|  3073091.0008|  2| 31|  0.7098|  0.7060|  0.4035| -0.6451|  0.4796| -0.4679|  5.00|   2.2
2023/05/18 12:15:52.000| -2843617.8991|  4805399.4897|  3073091.2267|  1| 31|  0.0072|  0.0072|  0.0041| -0.0065|  0.0049| -0.0047|  0.00|   3.9
2023/05/18 12:15:57.000| -2843617.7379|  4805399.0456|  3073091.0362|  2| 31|  0.7098|  0.7056|  0.4036| -0.6449|  0.4795| -0.4679|  5.00|   1.8
2023/05/18 12:16:02.000| -2843617.8997|  4805399.4912|  3073091.2262|  1| 31|  0.0072|  0.0072|  0.0041| -0.0065|  0.0049| -0.0047|  0.00|   3.4
2023/05/18 12:16:07.000| -2843617.7266|  4805399.2655|  3073091.1453|  2| 31|  0.7098|  0.7051|  0.4036| -0.6446|  0.4793| -0.4679|  5.00|   2.4
2023/05/18 12:16:12.000| -2843617.8994|  4805399.4909|  3073091.2257|  1| 31|  0.0072|  0.0072|  0.0041| -0.0065|  0.0049| -0.0047|  0.00|   4.0
2023/05/18 12:16:17.000| -2843617.5801|  4805399.4675|  3073091.2836|  2| 31|  0.7098|  0.7047|  0.4037| -0.6444|  0.4792| -0.4679|  5.00|   2.2
2023/05/18 12:16:22.000| -2843617.9006|  4805399.4898|  3073091.2271|  1| 31|  0.0072|  0.0072|  0.0041| -0.0065|  0.0049| -0.0047|  0.00|   3.4
2023/05/18 12:16:27.000| -2843618.0893|  4805400.1077|  3073091.4943|  2| 31|  0.7098|  0.7042|  0.4037| -0.6441|  0.4791| -0.4678|  5.00|   1.3
2023/05/18 12:16:32.000| -2843617.9012|  4805399.4894|  3073091.2276|  1| 31|  0.0072|  0.0072|  0.0041| -0.0065|  0.0049| -0.0047|  0.00|   3.5
2023/05/18 12:16:37.000| -2843617.8893|  4805399.9249|  3073091.4077|  2| 31|  0.7098|  0.7038|  0.4038| -0.6439|  0.4789| -0.4678|  5.00|   1.9
2023/05/18 12:16:42.000| -2843617.9027|  4805399.4932|  3073091.2292|  1| 31|  0.0072|  0.0072|  0.0041| -0.0065|  0.0049| -0.0047|  0.00|   3.4
2023/05/18 12:16:47.000| -2843617.7391|  4805399.5521|  3073091.3975|  2| 31|  0.7097|  0.7033|  0.4038| -0.6436|  0.4788| -0.4678|  5.00|   1.7
2023/05/18 12:16:52.000| -2843617.9000|  4805399.4910|  3073091.2288|  1| 31|  0.0072|  0.0071|  0.0041| -0.0065|  0.0049| -0.0047|  0.00|   3.1
2023/05/18 12:16:57.000| -2843617.7746|  4805399.5392|  3073091.1637|  2| 31|  0.7097|  0.7029|  0.4039| -0.6434|  0.4787| -0.4678|  5.00|   2.4
2023/05/18 12:17:02.000| -2843617.4006|  4805398.8253|  3073090.8404|  2| 31|  0.7097|  0.7026|  0.4039| -0.6432|  0.4786| -0.4677|  0.00|   2.8
2023/05/18 12:17:07.000| -2843617.1449|  4805398.6451|  3073090.7841|  2| 31|  0.7097|  0.7024|  0.4039| -0.6431|  0.4786| -0.4677|  5.00|   2.0
2023/05/18 12:17:12.000| -2843617.6801|  4805399.0682|  3073091.0423|  2| 31|  0.7097|  0.7022|  0.4039| -0.6430|  0.4785| -0.4677|  0.00|   2.7
2023/05/18 12:17:17.000| -2843617.7469|  4805399.1974|  3073091.1708|  2| 31|  0.7097|  0.7020|  0.4040| -0.6429|  0.4784| -0.4677|  5.00|   1.6
2023/05/18 12:17:22.000| -2843618.9408|  4805400.1771|  3073091.5646|  2| 31|  0.7097|  0.7017|  0.4040| -0.6427|  0.4784| -0.4677|  0.00|   2.5
2023/05/18 12:17:27.000| -2843618.3790|  4805399.6250|  3073091.3504|  2| 31|  0.7097|  0.7015|  0.4040| -0.6426|  0.4783| -0.4677|  5.00|   1.9
2023/05/18 12:17:32.000| -2843619.3606|  4805400.4702|  3073091.7639|  2| 31|  0.7096|  0.7013|  0.4040| -0.6425|  0.4782| -0.4676|  0.00|   2.1
2023/05/18 12:17:37.000| -2843619.2633|  4805400.3568|  3073091.7020|  2| 31|  0.7097|  0.7011|  0.4041| -0.6424|  0.4782| -0.4676|  5.00|   1.6
2023/05/18 12:17:42.000| -2843619.5773|  4805400.8302|  3073092.1735|  2| 31|  0.7096|  0.7008|  0.4041| -0.6422|  0.4781| -0.4676|  0.00|   2.4
2023/05/18 12:17:47.000| -2843619.6385|  4805400.9186|  3073092.2468|  2| 31|  0.7096|  0.7006|  0.4041| -0.6421|  0.4781| -0.4676|  5.00|   1.9
2023/05/18 12:17:52.000| -2843619.1127|  4805400.1908|  3073091.9172|  2| 31|  0.7096|  0.7004|  0.4042| -0.6420|  0.4780| -0.4676|  0.00|   2.5
2023/05/18 12:17:57.000| -2843619.3639|  4805400.2296|  3073091.9316|  2| 31|  0.7096|  0.7002|  0.4042| -0.6419|  0.4779| -0.4676|  5.00|   2.1
2023/05/18 12:18:02.000| -2843618.3840|  4805399.6475|  3073091.6480|  2| 31|  0.7096|  0.6999|  0.4042| -0.6417|  0.4779| -0.4676|  0.00|   2.4
2023/05/18 12:18:07.000| -2843618.5176|  4805399.7199|  3073091.6264|  2| 31|  0.7096|  0.6998|  0.4043| -0.6416|  0.4778| -0.4676|  5.00|   1.9
2023/05/18 12:18:12.000| -2843618.1065|  4805399.4985|  3073091.4873|  2| 31|  0.7096|  0.6995|  0.4043| -0.6415|  0.4777| -0.4675|  0.00|   2.3
2023/05/18 12:18:17.000| -2843618.3258|  4805399.4349|  3073091.5279|  2| 31|  0.7096|  0.6993|  0.4043| -0.6414|  0.4777| -0.4675|  5.00|   1.8
2023/05/18 12:18:22.000| -2843617.4313|  4805398.8169|  3073091.1074|  2| 31|  0.7095|  0.6991|  0.4043| -0.6412|  0.4776| -0.4675|  0.00|   2.3
2023/05/18 12:18:27.000| -2843617.4544|  4805398.9475|  3073091.2456|  2| 31|  0.7096|  0.6989|  0.4044| -0.6411|  0.4776| -0.4675|  5.00|   1.8
2023/05/18 12:18:32.000| -2843617.3157|  4805399.1264|  3073091.1325|  2| 31|  0.7095|  0.6986|  0.4044| -0.6410|  0.4775| -0.4675|  0.00|   2.6
2023/05/18 12:18:37.000| -2843617.1256|  4805398.8366|  3073090.9923|  2| 31|  0.7096|  0.6984|  0.4044| -0.6409|  0.4774| -0.4675|  5.00|   2.0
2023/05/18 12:18:42.000| -2843617.9010|  4805399.4955|  3073091.2250|  1| 31|  0.0072|  0.0071|  0.0041| -0.0065|  0.0048| -0.0047|  0.00|   3.2
2023/05/18 12:18:47.000| -2843616.8118|  4805398.5101|  3073090.8677|  2| 31|  0.7095|  0.6980|  0.4045| -0.6407|  0.4773| -0.4675|  5.00|   1.7
2023/05/18 12:18:52.000| -2843617.0259|  4805398.7424|  3073090.8220|  2| 31|  0.7095|  0.6977|  0.4045| -0.6405|  0.4772| -0.4674|  0.00|   2.8
2023/05/18 12:18:57.000| -2843617.0770|  4805398.8963|  3073090.8924|  2| 31|  0.7095|  0.6975|  0.4046| -0.6404|  0.4772| -0.4674|  5.00|   2.0
2023/05/18 12:19:02.000| -2843617.1151|  4805398.5531|  3073090.8767|  2| 31|  0.7095|  0.6973|  0.4046| -0.6402|  0.4771| -0.4674|  0.00|   2.6
2023/05/18 12:19:07.000| -2843617.4005|  4805399.0070|  3073091.0378|  2| 31|  0.7095|  0.6971|  0.4046| -0.6402|  0.4771| -0.4674|  5.00|   1.5
2023/05/18 12:19:12.000| -2843617.8922|  4805399.4848|  3073091.2212|  1| 30|  0.0073|  0.0072|  0.0042| -0.0066|  0.0050| -0.0048|  0.00|   3.9
2023/05/18 12:19:17.000| -2843618.1187|  4805399.6076|  3073091.5218|  2| 30|  0.7178|  0.7074|  0.4145| -0.6503|  0.4883| -0.4777|  5.00|   1.9
2023/05/18 12:19:22.000| -2843617.8925|  4805399.4861|  3073091.2221|  1| 30|  0.0073|  0.0072|  0.0042| -0.0066|  0.0050| -0.0048|  0.00|   3.5
2023/05/18 12:19:27.000| -2843619.0122|  4805400.0772|  3073091.8014|  2| 30|  0.7178|  0.7069|  0.4145| -0.6500|  0.4881| -0.4776|  5.00|   2.0
2023/05/18 12:19:32.000| -2843617.8908|  4805399.4837|  3073091.2199|  1| 30|  0.0073|  0.0072|  0.0042| -0.0066|  0.0050| -0.0048|  0.00|   3.5
2023/05/18 12:19:37.000| -2843618.7434|  4805400.2175|  3073091.8419|  2| 30|  0.7177|  0.7065|  0.4145| -0.6497|  0.4880| -0.4776|  5.00|   1.9
2023/05/18 12:19:42.000| -2843617.8948|  4805399.4853|  3073091.2212|  1| 30|  0.0073|  0.0072|  0.0042| -0.0066|  0.0050| -0.0048|  0.00|   3.7
2023/05/18 12:19:47.000| -2843618.8061|  4805400.4223|  3073091.6559|  2| 30|  0.7177|  0.7060|  0.4145| -0.6494|  0.4878| -0.4775|  5.00|   2.3
2023/05/18 12:19:52.000| -2843617.8936|  4805399.4860|  3073091.2201|  1| 30|  0.0073|  0.0072|  0.0042| -0.0066|  0.0050| -0.0048|  0.00|   3.4
2023/05/18 12:19:57.000| -2843618.3286|  4805399.7641|  3073091.4154|  2| 30|  0.7177|  0.7055|  0.4146| -0.6492|  0.4877| -0.4774|  5.00|   2.3
2023/05/18 12:20:02.000| -2843617.8919|  4805399.4836|  3073091.2201|  1| 30|  0.0073|  0.0072|  0.0042| -0.0066|  0.0049| -0.0048|  0.00|   3.5
2023/05/18 12:20:07.000| -2843617.8175|  4805399.3023|  3073091.3253|  2| 30|  0.7176|  0.7050|  0.4146| -0.6489|  0.4875| -0.4774|  5.00|   2.5
2023/05/18 12:20:12.000| -2843617.8927|  4805399.4851|  3073091.2193|  1| 30|  0.0073|  0.0072|  0.0042| -0.0066|  0.0049| -0.0048|  0.00|   3.5
2023/05/18 12:20:17.000| -2843617.4538|  4805398.8054|  3073091.0719|  2| 30|  0.7176|  0.7045|  0.4146| -0.6486|  0.4873| -0.4773|  5.00|   1.9
2023/05/18 12:20:22.000| -2843618.2118|  4805399.5170|  3073091.5531|  2| 30|  0.7175|  0.7043|  0.4146| -0.6484|  0.4872| -0.4773|  0.00|   2.8
2023/05/18 12:20:27.000| -2843618.0611|  4805399.4410|  3073091.5862|  2| 30|  0.7175|  0.7041|  0.4147| -0.6483|  0.4872| -0.4773|  5.00|   2.1
2023/05/18 12:20:32.000| -2843617.8941|  4805399.4846|  3073091.2200|  1| 30|  0.0073|  0.0072|  0.0042| -0.0066|  0.0049| -0.0048|  0.00|   3.3
2023/05/18 12:20:37.000| -2843618.8911|  4805400.3348|  3073092.1794|  2| 30|  0.7175|  0.7036|  0.4147| -0.6480|  0.4870| -0.4772|  5.00|   2.3
2023/05/18 12:20:42.000| -2843617.8967|  4805399.4865|  3073091.2233|  1| 30|  0.0073|  0.0072|  0.0042| -0.0066|  0.0049| -0.0048|  0.00|   3.6
2023/05/18 12:20:47.000| -2843618.7551|  4805400.3035|  3073092.1873|  2| 30|  0.7174|  0.7031|  0.4147| -0.6478|  0.4868| -0.4772|  5.00|   2.1
2023/05/18 12:20:52.000| -2843617.8966|  4805399.4864|  3073091.2236|  1| 29|  0.0076|  0.0073|  0.0044| -0.0068|  0.0051| -0.0051|  0.00|   4.6
2023/05/18 12:20:57.000| -2843618.3567|  4805399.7882|  3073091.6726|  2| 29|  0.7479|  0.7195|  0.4352| -0.6723|  0.5072| -0.5055|  5.00|   2.1
2023/05/18 12:21:02.000| -2843617.8932|  4805399.4813|  3073091.2215|  1| 29|  0.0076|  0.0073|  0.0044| -0.0068|  0.0051| -0.0051|  0.00|   4.9
2023/05/18 12:21:07.000| -2843618.0502|  4805399.3714|  3073091.4102|  2| 29|  0.7479|  0.7190|  0.4352| -0.6720|  0.5070| -0.5054|  5.00|   2.3
2023/05/18 12:21:12.000| -2843617.8927|  4805399.4821|  3073091.2217|  1| 29|  0.0076|  0.0073|  0.0044| -0.0068|  0.0051| -0.0051|  0.00|   3.9
2023/05/18 12:21:17.000| -2843618.4457|  4805399.6834|  3073091.5721|  2| 29|  0.7479|  0.7185|  0.4353| -0.6718|  0.5069| -0.5054|  5.00|   2.2
2023/05/18 12:21:22.000| -2843617.8866|  4805399.4773|  3073091.2185|  1| 29|  0.0076|  0.0073|  0.0044| -0.0068|  0.0051| -0.0051|  0.00|   4.2
2023/05/18 12:21:27.000| -2843618.2166|  4805399.8021|  3073091.3540|  2| 29|  0.7479|  0.7180|  0.4353| -0.6715|  0.5067| -0.5054|  5.00|   2.3
2023/05/18 12:21:32.000| -2843617.8892|  4805399.4786|  3073091.2181|  1| 29|  0.0076|  0.0073|  0.0044| -0.0068|  0.0051| -0.0051|  0.00|   4.1
2023/05/18 12:21:37.000| -2843617.6602|  4805399.2319|  3073091.1581|  2| 29|  0.7479|  0.7176|  0.4354| -0.6712|  0.5066| -0.5054|  5.00|   2.1
2023/05/18 12:21:42.000| -2843617.8904|  4805399.4810|  3073091.2176|  1| 29|  0.0076|  0.0073|  0.0044| -0.0068|  0.0051| -0.0051|  0.00|   3.4
2023/05/18 12:21:47.000| -2843618.0473|  4805399.8804|  3073091.4094|  2| 29|  0.7479|  0.7171|  0.4354| -0.6710|  0.5064| -0.5053|  5.00|   2.4
2023/05/18 12:21:52.000| -2843617.2233|  4805399.3732|  3073091.1467|  2| 29|  0.7479|  0.7168|  0.4354| -0.6708|  0.5063| -0.5053|  0.00|   2.9
2023/05/18 12:21:57.000| -2843617.4550|  4805399.5466|  3073091.3014|  2| 29|  0.7479|  0.7166|  0.4354| -0.6707|  0.5063| -0.5053|  5.00|   1.8
2023/05/18 12:22:02.000| -2843617.3425|  4805399.3417|  3073091.1913|  2| 30|  0.7171|  0.6995|  0.4149| -0.6456|  0.4856| -0.4767|  0.00|   2.7
2023/05/18 12:22:07.000| -2843617.3390|  4805399.2824|  3073091.2861|  2| 30|  0.7171|  0.6993|  0.4150| -0.6455|  0.4855| -0.4767|  5.00|   1.8
2023/05/18 12:22:12.000| -2843617.7112|  4805399.5353|  3073091.4710|  2| 30|  0.6994|  0.6894|  0.4128| -0.6310|  0.4803| -0.4695|  0.00|   2.6
2023/05/18 12:22:17.000| -2843617.8651|  4805399.6003|  3073091.4413|  2| 30|  0.6994|  0.6892|  0.4128| -0.6309|  0.4803| -0.4695|  5.00|   2.0
2023/05/18 12:22:22.000| -2843617.7706|  4805399.7420|  3073091.3982|  2| 30|  0.6994|  0.6890|  0.4128| -0.6308|  0.4803| -0.4695|  0.00|   2.7
2023/05/18 12:22:27.000| -2843617.9793|  4805399.8596|  3073091.4778|  2| 30|  0.6995|  0.6889|  0.4129| -0.6308|  0.4802| -0.4696|  5.00|   1.7
2023/05/18 12:22:32.000| -2843618.5234|  4805399.9189|  3073091.5830|  2| 30|  0.6995|  0.6886|  0.4129| -0.6307|  0.4802| -0.4695|  0.00|   2.8
2023/05/18 12:22:37.000| -2843618.2597|  4805399.6875|  3073091.4849|  2| 30|  0.6996|  0.6885|  0.4129| -0.6306|  0.4801| -0.4696|  5.00|   2.0
2023/05/18 12:22:42.000| -2843618.0155|  4805399.1880|  3073091.3782|  2| 30|  0.6996|  0.6883|  0.4130| -0.6305|  0.4801| -0.4696|  0.00|   2.5
2023/05/18 12:22:47.000| -2843618.1693|  4805399.3957|  3073091.3712|  2| 30|  0.6996|  0.6881|  0.4130| -0.6305|  0.4800| -0.4696|  5.00|   2.1
2023/05/18 12:22:52.000| -2843618.1014|  4805399.4132|  3073091.4668|  2| 30|  0.6996|  0.6879|  0.4130| -0.6303|  0.4800| -0.4696|  0.00|   2.9
2023/05/18 12:22:57.000| -2843618.0223|  4805399.3990|  3073091.5008|  2| 30|  0.6997|  0.6878|  0.4131| -0.6303|  0.4799| -0.4696|  5.00|   2.0
2023/05/18 12:23:02.000| -2843618.4723|  4805399.7438|  3073091.5920|  2| 31|  0.6870|  0.6828|  0.4114| -0.6216|  0.4767| -0.4643|  0.00|   2.9
2023/05/18 12:23:07.000| -2843618.4519|  4805399.9162|  3073091.7241|  2| 31|  0.6871|  0.6827|  0.4115| -0.6216|  0.4767| -0.4644|  5.00|   2.3
2023/05/18 12:23:12.000| -2843617.4994|  4805399.4013|  3073091.3831|  2| 31|  0.6871|  0.6825|  0.4115| -0.6216|  0.4767| -0.4644|  0.00|   2.0
2023/05/18 12:23:17.000| -2843617.5035|  4805399.3766|  3073091.4127|  2| 31|  0.6872|  0.6824|  0.4116| -0.6215|  0.4767| -0.4644|  5.00|   1.4
2023/05/18 12:23:22.000| -2843617.8882|  4805399.4803|  3073091.2190|  1| 30|  0.0071|  0.0070|  0.0042| -0.0064|  0.0049| -0.0048|  0.00|   3.4
2023/05/18 12:23:27.000| -2843617.7385|  4805399.5293|  3073091.3783|  2| 30|  0.6998|  0.6867|  0.4133| -0.6298|  0.4797| -0.4696|  5.00|   2.8
2023/05/18 12:23:32.000| -2843617.5288|  4805398.9796|  3073091.2502|  2| 32|  0.6869|  0.6772|  0.4071| -0.6198|  0.4715| -0.4628|  0.00|   1.8
2023/05/18 12:23:37.000| -2843617.7431|  4805399.3464|  3073091.3682|  2| 32|  0.6870|  0.6771|  0.4072| -0.6198|  0.4715| -0.4629|  5.00|   1.3
2023/05/18 12:23:42.000| -2843617.6202|  4805399.2068|  3073091.4728|  2| 32|  0.6870|  0.6769|  0.4072| -0.6197|  0.4714| -0.4629|  0.00|   1.1
2023/05/18 12:23:47.000| -2843617.8406|  4805399.3891|  3073091.4870|  2| 32|  0.6871|  0.6768|  0.4073| -0.6197|  0.4714| -0.4630|  5.00|   1.1
2023/05/18 12:23:52.000| -2843618.1493|  4805399.6305|  3073091.4166|  2| 32|  0.6872|  0.6767|  0.4073| -0.6197|  0.4714| -0.4630|  0.00|   1.1
2023/05/18 12:23:57.000| -2843618.4421|  4805399.7990|  3073091.5543|  2| 32|  0.6873|  0.6765|  0.4074| -0.6197|  0.4714| -0.4631|  5.00|   1.1
2023/05/18 12:24:02.000| -2843617.8930|  4805399.4556|  3073091.1990|  2| 32|  0.6873|  0.6764|  0.4074| -0.6196|  0.4713| -0.4631|  0.00|   1.1
2023/05/18 12:24:07.000| -2843617.5555|  4805399.0624|  3073090.9432|  2| 32|  0.6874|  0.6763|  0.4075| -0.6196|  0.4713| -0.4631|  5.00|   1.0
2023/05/18 12:24:12.000| -2843618.1347|  4805399.3733|  3073091.2406|  2| 32|  0.6874|  0.6761|  0.4075| -0.6195|  0.4713| -0.4632|  0.00|   1.8
2023/05/18 12:24:17.000| -2843618.0368|  4805399.2506|  3073091.1300|  2| 32|  0.6875|  0.6760|  0.4076| -0.6195|  0.4713| -0.4632|  5.00|   1.5
2023/05/18 12:24:22.000| -2843617.8333|  4805399.4443|  3073091.2212|  2| 31|  0.6991|  0.6793|  0.4086| -0.6265|  0.4734| -0.4672|  0.00|   1.1
2023/05/18 12:24:27.000| -2843617.8047|  4805399.4554|  3073091.2326|  2| 31|  0.6991|  0.6792|  0.4087| -0.6264|  0.4734| -0.4672|  5.00|   1.1
2023/05/18 12:24:32.000| -2843618.2556|  4805399.7726|  3073091.2223|  2| 31|  0.7141|  0.6854|  0.4098| -0.6370|  0.4762| -0.4718|  0.00|   1.9
2023/05/18 12:24:37.000| -2843618.5081|  4805399.9608|  3073091.3886|  2| 31|  0.7141|  0.6852|  0.4098| -0.6369|  0.4762| -0.4718|  5.00|   1.2
2023/05/18 12:24:42.000| -2843618.3921|  4805399.8438|  3073091.4439|  2| 31|  0.7141|  0.6850|  0.4098| -0.6368|  0.4761| -0.4717|  0.00|   2.2
2023/05/18 12:24:47.000| -2843618.1670|  4805399.5606|  3073091.2817|  2| 31|  0.7141|  0.6848|  0.4099| -0.6367|  0.4761| -0.4717|  5.00|   1.5
2023/05/18 12:24:52.000| -2843617.9381|  4805399.5624|  3073091.0084|  2| 31|  0.7140|  0.6845|  0.4099| -0.6365|  0.4760| -0.4717|  0.00|   2.3
2023/05/18 12:24:57.000| -2843617.8617|  4805399.4208|  3073091.0342|  2| 31|  0.7141|  0.6844|  0.4099| -0.6365|  0.4759| -0.4717|  5.00|   1.7
2023/05/18 12:25:02.000| -2843617.9612|  4805399.6445|  3073091.0938|  2| 31|  0.7140|  0.6841|  0.4100| -0.6363|  0.4759| -0.4717|  0.00|   2.3
2023/05/18 12:25:07.000| -2843617.6801|  4805399.2264|  3073090.9033|  2| 31|  0.7140|  0.6839|  0.4100| -0.6362|  0.4758| -0.4717|  5.00|   1.2
2023/05/18 12:25:12.000| -2843617.3974|  4805398.9180|  3073090.6290|  2| 32|  0.7017|  0.6800|  0.4090| -0.6287|  0.4735| -0.4676|  0.00|   1.2
2023/05/18 12:25:17.000| -2843617.1594|  4805398.6717|  3073090.5971|  2| 32|  0.7018|  0.6799|  0.4090| -0.6287|  0.4735| -0.4676|  5.00|   1.0
2023/05/18 12:25:22.000| -2843616.5010|  4805397.9021|  3073090.1862|  2| 32|  0.7017|  0.6797|  0.4090| -0.6285|  0.4735| -0.4676|  0.00|   1.3
2023/05/18 12:25:27.000| -2843616.3872|  4805397.8585|  3073090.1146|  2| 32|  0.7018|  0.6795|  0.4091| -0.6285|  0.4734| -0.4676|  5.00|   1.2
2023/05/18 12:25:32.000| -2843615.5897|  4805397.4775|  3073089.8992|  2| 32|  0.7018|  0.6793|  0.4091| -0.6284|  0.4734| -0.4676|  0.00|   1.3
2023/05/18 12:25:37.000| -2843615.2119|  4805397.3768|  3073089.7894|  2| 32|  0.7018|  0.6791|  0.4092| -0.6283|  0.4734| -0.4676|  5.00|   1.2
2023/05/18 12:25:42.000| -2843616.7221|  4805399.3021|  3073090.8626|  2| 32|  0.7018|  0.6789|  0.4092| -0.6282|  0.4733| -0.4676|  0.00|   1.2
2023/05/18 12:25:47.000| -2843616.7741|  4805399.4727|  3073090.8677|  2| 32|  0.7019|  0.6788|  0.4092| -0.6282|  0.4733| -0.4676|  5.00|   1.2
2023/05/18 12:25:52.000| -2843617.3140|  4805399.8935|  3073091.2215|  2| 32|  0.7019|  0.6786|  0.4093| -0.6281|  0.4732| -0.4676|  0.00|   1.0
2023/05/18 12:25:57.000| -2843617.1947|  4805399.6506|  3073091.1681|  2| 32|  0.7019|  0.6784|  0.4093| -0.6280|  0.4732| -0.4677|  5.00|   1.1
2023/05/18 12:26:02.000| -2843617.3489|  4805400.0077|  3073091.1275|  2| 32|  0.7019|  0.6782|  0.4094| -0.6279|  0.4731| -0.4676|  0.00|   1.3
2023/05/18 12:26:07.000| -2843616.9911|  4805399.6872|  3073090.9751|  2| 32|  0.7019|  0.6781|  0.4094| -0.6278|  0.4731| -0.4677|  5.00|   1.1
2023/05/18 12:26:12.000| -2843618.3645|  4805400.7873|  3073091.7786|  2| 32|  0.7019|  0.6778|  0.4094| -0.6277|  0.4730| -0.4677|  0.00|   1.6
2023/05/18 12:26:17.000| -2843618.5044|  4805400.7352|  3073091.7974|  2| 32|  0.7020|  0.6777|  0.4095| -0.6277|  0.4730| -0.4677|  5.00|   1.3
2023/05/18 12:26:22.000| -2843618.2370|  4805400.0905|  3073091.5001|  2| 31|  0.7213|  0.6968|  0.4279| -0.6487|  0.4939| -0.4892|  0.00|   1.6
2023/05/18 12:26:27.000| -2843618.2676|  4805400.1669|  3073091.5403|  2| 31|  0.7214|  0.6966|  0.4280| -0.6487|  0.4938| -0.4893|  5.00|   1.2
2023/05/18 12:26:32.000| -2843619.4066|  4805401.0968|  3073092.2674|  2| 32|  0.7020|  0.6771|  0.4096| -0.6274|  0.4729| -0.4677|  0.00|   1.6
2023/05/18 12:26:37.000| -2843619.4225|  4805401.1809|  3073092.3798|  2| 32|  0.7020|  0.6770|  0.4096| -0.6273|  0.4728| -0.4677|  5.00|   1.4
2023/05/18 12:26:42.000| -2843618.3786|  4805399.9862|  3073091.9982|  2| 32|  0.7020|  0.6768|  0.4097| -0.6272|  0.4728| -0.4677|  0.00|   1.6
2023/05/18 12:26:47.000| -2843618.4119|  4805400.1586|  3073091.9907|  2| 32|  0.7021|  0.6766|  0.4097| -0.6272|  0.4728| -0.4677|  5.00|   1.4
2023/05/18 12:26:52.000| -2843617.9849|  4805399.8626|  3073091.8046|  2| 32|  0.7021|  0.6764|  0.4098| -0.6271|  0.4727| -0.4677|  0.00|   1.7
2023/05/18 12:26:57.000| -2843618.0327|  4805400.0162|  3073091.9306|  2| 32|  0.7021|  0.6763|  0.4098| -0.6270|  0.4727| -0.4678|  5.00|   1.4
2023/05/18 12:27:02.000| -2843617.8233|  4805399.4880|  3073091.5158|  2| 32|  0.7021|  0.6760|  0.4098| -0.6269|  0.4726| -0.4677|  0.00|   1.8
2023/05/18 12:27:07.000| -2843617.9335|  4805399.6440|  3073091.5463|  2| 32|  0.7021|  0.6759|  0.4099| -0.6268|  0.4726| -0.4678|  5.00|   1.7
2023/05/18 12:27:12.000| -2843617.9847|  4805399.5987|  3073091.4380|  2| 32|  0.7021|  0.6757|  0.4099| -0.6267|  0.4725| -0.4678|  0.00|   1.6
2023/05/18 12:27:17.000| -2843617.8835|  4805399.3773|  3073091.2833|  2| 32|  0.7022|  0.6755|  0.4100| -0.6267|  0.4725| -0.4678|  5.00|   1.3
2023/05/18 12:27:22.000| -2843617.8060|  4805399.0646|  3073091.1212|  2| 32|  0.7021|  0.6753|  0.4100| -0.6265|  0.4724| -0.4678|  0.00|   1.6
2023/05/18 12:27:27.000| -2843617.9399|  4805399.0560|  3073091.0555|  2| 32|  0.7022|  0.6752|  0.4101| -0.6265|  0.4724| -0.4678|  5.00|   1.4
2023/05/18 12:27:32.000| -2843618.8090|  4805399.7111|  3073091.4067|  2| 32|  0.7022|  0.6750|  0.4101| -0.6264|  0.4724| -0.4678|  0.00|   1.5
2023/05/18 12:27:37.000| -2843618.6028|  4805399.4190|  3073091.2927|  2| 32|  0.7022|  0.6748|  0.4101| -0.6263|  0.4723| -0.4678|  5.00|   1.5
2023/05/18 12:27:42.000| -2843618.6637|  4805399.8407|  3073091.5229|  2| 32|  0.7022|  0.6746|  0.4102| -0.6262|  0.4723| -0.4678|  0.00|   1.5
2023/05/18 12:27:47.000| -2843618.4846|  4805399.6933|  3073091.4320|  2| 32|  0.7022|  0.6745|  0.4102| -0.6262|  0.4722| -0.4678|  5.00|   1.2
2023/05/18 12:27:52.000| -2843617.0265|  4805398.9363|  3073090.7188|  2| 32|  0.7022|  0.6743|  0.4102| -0.6260|  0.4722| -0.4678|  0.00|   1.6
2023/05/18 12:27:57.000| -2843617.1321|  4805399.0234|  3073090.7405|  2| 32|  0.7023|  0.6741|  0.4103| -0.6260|  0.4722| -0.4678|  5.00|   1.5
2023/05/18 12:28:02.000| -2843617.4408|  4805399.4454|  3073090.9799|  2| 32|  0.7022|  0.6739|  0.4103| -0.6259|  0.4721| -0.4678|  0.00|   1.7
2023/05/18 12:28:07.000| -2843617.1845|  4805399.1223|  3073090.8672|  2| 32|  0.7023|  0.6738|  0.4104| -0.6258|  0.4721| -0.4679|  5.00|   1.6
2023/05/18 12:28:12.000| -2843618.4843|  4805399.7566|  3073091.2263|  2| 32|  0.7023|  0.6735|  0.4104| -0.6257|  0.4720| -0.4678|  0.00|   1.8
2023/05/18 12:28:17.000| -2843618.0482|  4805399.4684|  3073091.0241|  2| 32|  0.7023|  0.6734|  0.4105| -0.6256|  0.4720| -0.4679|  5.00|   1.5
2023/05/18 12:28:22.000| -2843616.7137|  4805398.9620|  3073090.8411|  2| 32|  0.7023|  0.6732|  0.4105| -0.6255|  0.4719| -0.4679|  0.00|   1.8
2023/05/18 12:28:27.000| -2843616.6598|  4805398.9223|  3073090.7650|  2| 32|  0.7023|  0.6730|  0.4106| -0.6255|  0.4719| -0.4679|  5.00|   1.6
2023/05/18 12:28:32.000| -2843616.4248|  4805399.0851|  3073090.9886|  2| 32|  0.7023|  0.6728|  0.4106| -0.6254|  0.4718| -0.4679|  0.00|   1.7
2023/05/18 12:28:37.000| -2843616.2107|  4805398.9771|  3073090.9932|  2| 32|  0.7024|  0.6727|  0.4106| -0.6253|  0.4718| -0.4679|  5.00|   1.4
2023/05/18 12:28:42.000| -2843617.1211|  4805399.2127|  3073091.0802|  2| 32|  0.7023|  0.6725|  0.4107| -0.6252|  0.4718| -0.4679|  0.00|   1.1
2023/05/18 12:28:47.000| -2843616.8948|  4805399.1677|  3073091.0278|  2| 32|  0.7024|  0.6723|  0.4107| -0.6251|  0.4717| -0.4679|  5.00|   1.2
2023/05/18 12:28:52.000| -2843616.6495|  4805398.5948|  3073090.6531|  2| 32|  0.6906|  0.6681|  0.4103| -0.6175|  0.4701| -0.4652|  0.00|   1.6
2023/05/18 12:28:57.000| -2843617.0004|  4805398.7705|  3073090.7792|  2| 32|  0.6907|  0.6680|  0.4103| -0.6175|  0.4701| -0.4652|  5.00|   1.4
2023/05/18 12:29:02.000| -2843616.7500|  4805398.3901|  3073090.7270|  2| 32|  0.6907|  0.6678|  0.4104| -0.6174|  0.4701| -0.4652|  0.00|   1.6
2023/05/18 12:29:07.000| -2843617.4245|  4805398.6718|  3073090.8839|  2| 32|  0.6907|  0.6677|  0.4104| -0.6174|  0.4701| -0.4653|  5.00|   1.4
2023/05/18 12:29:12.000| -2843617.4120|  4805398.8481|  3073090.8961|  2| 32|  0.6908|  0.6675|  0.4105| -0.6173|  0.4700| -0.4653|  0.00|   1.6
2023/05/18 12:29:17.000| -2843617.3570|  4805398.8762|  3073090.9966|  2| 32|  0.6908|  0.6674|  0.4105| -0.6173|  0.4700| -0.4654|  5.00|   1.4
2023/05/18 12:29:22.000| -2843617.3033|  4805398.9351|  3073091.0833|  2| 32|  0.6909|  0.6673|  0.4106| -0.6172|  0.4700| -0.4654|  0.00|   2.0
2023/05/18 12:29:27.000| -2843617.4592|  4805399.0617|  3073091.0714|  2| 32|  0.6909|  0.6671|  0.4106| -0.6172|  0.4700| -0.4654|  5.00|   1.3
2023/05/18 12:29:32.000| -2843617.7848|  4805399.3270|  3073091.2547|  2| 32|  0.6909|  0.6670|  0.4107| -0.6171|  0.4699| -0.4654|  0.00|   1.7
2023/05/18 12:29:37.000| -2843617.7886|  4805399.4021|  3073091.2123|  2| 32|  0.6910|  0.6668|  0.4107| -0.6171|  0.4699| -0.4655|  5.00|   1.3
2023/05/18 12:29:42.000| -2843617.5623|  4805399.4915|  3073091.2269|  2| 32|  0.6910|  0.6667|  0.4108| -0.6170|  0.4699| -0.4655|  0.00|   1.7
2023/05/18 12:29:47.000| -2843617.6524|  4805399.5828|  3073091.1967|  2| 32|  0.6911|  0.6666|  0.4108| -0.6170|  0.4699| -0.4655|  5.00|   1.6
2023/05/18 12:29:52.000| -2843618.3597|  4805399.5007|  3073091.4661|  2| 32|  0.6911|  0.6664|  0.4109| -0.6169|  0.4698| -0.4655|  0.00|   1.5
2023/05/18 12:29:57.000| -2843618.3233|  4805399.5294|  3073091.5352|  2| 32|  0.6912|  0.6663|  0.4109| -0.6169|  0.4698| -0.4656|  5.00|   1.4
2023/05/18 12:30:02.000| -2843618.0921|  4805399.2584|  3073091.2724|  2| 32|  0.6912|  0.6661|  0.4110| -0.6168|  0.4698| -0.4656|  0.00|   1.5
2023/05/18 12:30:07.000| -2843618.5790|  4805399.6045|  3073091.5592|  2| 32|  0.6913|  0.6660|  0.4110| -0.6168|  0.4698| -0.4656|  5.00|   1.2
2023/05/18 12:30:12.000| -2843617.8598|  4805398.9719|  3073091.1150|  2| 32|  0.6913|  0.6658|  0.4111| -0.6167|  0.4697| -0.4656|  0.00|   1.4
2023/05/18 12:30:17.000| -2843618.2268|  4805399.2030|  3073091.3486|  2| 32|  0.6914|  0.6657|  0.4111| -0.6167|  0.4697| -0.4657|  5.00|   1.3
2023/05/18 12:30:22.000| -2843617.7965|  4805399.0537|  3073091.0276|  2| 32|  0.6914|  0.6655|  0.4112| -0.6166|  0.4697| -0.4657|  0.00|   1.5
2023/05/18 12:30:27.000| -2843617.7075|  4805399.0455|  3073091.0457|  2| 32|  0.6915|  0.6654|  0.4113| -0.6166|  0.4697| -0.4657|  5.00|   1.4
2023/05/18 12:30:32.000| -2843618.2652|  4805399.3768|  3073091.4637|  2| 32|  0.6915|  0.6652|  0.4113| -0.6166|  0.4696| -0.4658|  0.00|   1.7
2023/05/18 12:30:37.000| -2843617.9524|  4805399.0962|  3073091.2308|  2| 32|  0.6915|  0.6651|  0.4114| -0.6165|  0.4696| -0.4658|  5.00|   1.4
2023/05/18 12:30:42.000| -2843617.6794|  4805399.0751|  3073091.4309|  2| 32|  0.6915|  0.6649|  0.4114| -0.6165|  0.4696| -0.4658|  0.00|   2.0
2023/05/18 12:30:47.000| -2843617.7696|  4805399.1743|  3073091.5238|  2| 32|  0.6916|  0.6648|  0.4115| -0.6164|  0.4696| -0.4659|  5.00|   1.5
2023/05/18 12:30:52.000| -2843617.5094|  4805399.5482|  3073091.5527|  2| 32|  0.6916|  0.6647|  0.4115| -0.6164|  0.4695| -0.4659|  0.00|   2.1
2023/05/18 12:30:57.000| -2843617.5190|  4805399.4395|  3073091.5197|  2| 32|  0.6917|  0.6645|  0.4116| -0.6163|  0.4695| -0.4659|  5.00|   1.6
2023/05/18 12:31:02.000| -2843617.8941|  4805399.4359|  3073091.4589|  2| 32|  0.6917|  0.6644|  0.4116| -0.6163|  0.4695| -0.4659|  0.00|   2.4
2023/05/18 12:31:07.000| -2843617.9694|  4805399.6011|  3073091.5373|  2| 32|  0.6918|  0.6642|  0.4117| -0.6162|  0.4695| -0.4660|  5.00|   1.9
2023/05/18 12:31:12.000| -2843618.0777|  4805399.8171|  3073091.5820|  2| 32|  0.6918|  0.6641|  0.4117| -0.6162|  0.4694| -0.4660|  0.00|   2.6
2023/05/18 12:31:17.000| -2843618.1413|  4805399.8996|  3073091.5787|  2| 32|  0.6919|  0.6640|  0.4118| -0.6161|  0.4694| -0.4660|  5.00|   1.8
2023/05/18 12:31:22.000| -2843617.2576|  4805399.4030|  3073091.2382|  2| 32|  0.6919|  0.6638|  0.4118| -0.6161|  0.4694| -0.4660|  0.00|   2.1
2023/05/18 12:31:27.000| -2843617.4847|  4805399.5623|  3073091.3350|  2| 32|  0.6919|  0.6637|  0.4119| -0.6160|  0.4694| -0.4661|  5.00|   1.6
2023/05/18 12:31:32.000| -2843617.9584|  4805399.8718|  3073091.4575|  2| 32|  0.6919|  0.6635|  0.4119| -0.6160|  0.4693| -0.4661|  0.00|   2.2
2023/05/18 12:31:37.000| -2843617.7448|  4805399.8412|  3073091.4665|  2| 32|  0.6920|  0.6634|  0.4120| -0.6159|  0.4693| -0.4661|  5.00|   1.7
2023/05/18 12:31:42.000| -2843617.3971|  4805399.6881|  3073091.3152|  2| 32|  0.6920|  0.6632|  0.4120| -0.6159|  0.4693| -0.4661|  0.00|   2.3
2023/05/18 12:31:47.000| -2843617.2848|  4805399.6685|  3073091.2854|  2| 32|  0.6921|  0.6631|  0.4121| -0.6158|  0.4693| -0.4662|  5.00|   1.5
2023/05/18 12:31:52.000| -2843618.0465|  4805400.2730|  3073091.4993|  2| 32|  0.6921|  0.6629|  0.4121| -0.6158|  0.4692| -0.4662|  0.00|   2.5
2023/05/18 12:31:57.000| -2843618.1922|  4805400.3953|  3073091.6501|  2| 32|  0.6921|  0.6628|  0.4122| -0.6157|  0.4692| -0.4662|  5.00|   1.7
2023/05/18 12:32:02.000| -2843617.8985|  4805400.0321|  3073091.3481|  2| 32|  0.6922|  0.6626|  0.4122| -0.6157|  0.4692| -0.4662|  0.00|   2.3
2023/05/18 12:32:07.000| -2843617.7119|  4805399.5268|  3073091.1589|  2| 32|  0.6922|  0.6625|  0.4123| -0.6156|  0.4692| -0.4662|  5.00|   1.9
2023/05/18 12:32:12.000| -2843617.1623|  4805399.1434|  3073091.1365|  2| 32|  0.6922|  0.6623|  0.4123| -0.6156|  0.4691| -0.4662|  0.00|   2.5
2023/05/18 12:32:17.000| -2843617.4052|  4805399.3084|  3073091.2390|  2| 32|  0.6923|  0.6622|  0.4124| -0.6155|  0.4691| -0.4663|  5.00|   2.1
2023/05/18 12:32:22.000| -2843617.9630|  4805399.6443|  3073091.5086|  2| 31|  0.7011|  0.6634|  0.4127| -0.6193|  0.4698| -0.4682|  0.00|   2.7
2023/05/18 12:32:27.000| -2843618.0560|  4805399.7671|  3073091.4299|  2| 31|  0.7011|  0.6633|  0.4128| -0.6192|  0.4698| -0.4683|  5.00|   1.9
2023/05/18 12:32:32.000| -2843618.1139|  4805399.5933|  3073091.4400|  2| 31|  0.7011|  0.6631|  0.4128| -0.6191|  0.4698| -0.4683|  0.00|   2.5
2023/05/18 12:32:37.000| -2843618.1185|  4805399.6868|  3073091.4265|  2| 31|  0.7012|  0.6630|  0.4129| -0.6191|  0.4698| -0.4683|  5.00|   2.6
2023/05/18 12:32:42.000| -2843618.6239|  4805399.9653|  3073091.6095|  2| 31|  0.7011|  0.6628|  0.4129| -0.6190|  0.4697| -0.4683|  0.00|   2.5
2023/05/18 12:32:47.000| -2843618.6728|  4805399.8784|  3073091.5520|  2| 31|  0.7012|  0.6627|  0.4130| -0.6189|  0.4697| -0.4683|  5.00|   2.0
2023/05/18 12:32:52.000| -2843618.3481|  4805399.9457|  3073091.4686|  2| 31|  0.7012|  0.6625|  0.4130| -0.6188|  0.4696| -0.4683|  0.00|   2.4
2023/05/18 12:32:57.000| -2843618.2600|  4805399.9660|  3073091.4514|  2| 31|  0.7012|  0.6623|  0.4131| -0.6188|  0.4696| -0.4683|  5.00|   2.3
2023/05/18 12:33:02.000| -2843618.2457|  4805399.8219|  3073091.4589|  2| 31|  0.7012|  0.6622|  0.4131| -0.6187|  0.4695| -0.4683|  0.00|   2.2
2023/05/18 12:33:07.000| -2843618.2247|  4805399.9583|  3073091.6390|  2| 31|  0.7012|  0.6620|  0.4132| -0.6186|  0.4695| -0.4683|  5.00|   2.4
2023/05/18 12:33:12.000| -2843617.8247|  4805399.7905|  3073091.4976|  2| 31|  0.7012|  0.6618|  0.4132| -0.6185|  0.4695| -0.4683|  0.00|   1.8
2023/05/18 12:33:17.000| -2843617.9659|  4805399.8416|  3073091.5910|  2| 31|  0.7012|  0.6617|  0.4133| -0.6184|  0.4695| -0.4683|  5.00|   1.7
2023/05/18 12:33:22.000| -2843617.6948|  4805399.5219|  3073091.6975|  2| 32|  0.6539|  0.6472|  0.4071| -0.5896|  0.4589| -0.4487|  0.00|   1.7
2023/05/18 12:33:27.000| -2843617.9846|  4805399.8863|  3073091.8962|  2| 32|  0.6540|  0.6471|  0.4072| -0.5897|  0.4589| -0.4487|  5.00|   1.6
2023/05/18 12:33:32.000| -2843617.5890|  4805399.5339|  3073091.6976|  2| 33|  0.6481|  0.6464|  0.4072| -0.5875|  0.4586| -0.4479|  0.00|   1.6
2023/05/18 12:33:37.000| -2843618.2272|  4805400.0641|  3073092.0403|  2| 33|  0.6482|  0.6463|  0.4073| -0.5876|  0.4587| -0.4480|  5.00|   1.5
2023/05/18 12:33:42.000| -2843618.0446|  4805399.6458|  3073091.5514|  2| 33|  0.6483|  0.6462|  0.4073| -0.5876|  0.4587| -0.4480|  0.00|   1.8
2023/05/18 12:33:47.000| -2843618.6502|  4805400.0437|  3073091.8594|  2| 33|  0.6484|  0.6461|  0.4074| -0.5876|  0.4587| -0.4481|  5.00|   1.8
2023/05/18 12:33:52.000| -2843617.9288|  4805399.5321|  3073091.6341|  2| 33|  0.6485|  0.6460|  0.4075| -0.5876|  0.4587| -0.4482|  0.00|   1.5
2023/05/18 12:33:57.000| -2843618.1131|  4805399.6424|  3073091.8188|  2| 33|  0.6486|  0.6460|  0.4076| -0.5877|  0.4587| -0.4483|  5.00|   1.5
2023/05/18 12:34:02.000| -2843617.6944|  4805399.5100|  3073091.6035|  2| 33|  0.6487|  0.6458|  0.4076| -0.5877|  0.4587| -0.4483|  0.00|   1.7
2023/05/18 12:34:07.000| -2843617.4534|  4805399.3772|  3073091.5089|  2| 33|  0.6489|  0.6458|  0.4077| -0.5877|  0.4587| -0.4484|  5.00|   1.7
2023/05/18 12:34:12.000| -2843618.0861|  4805399.5743|  3073091.5843|  2| 33|  0.6489|  0.6457|  0.4078| -0.5877|  0.4587| -0.4485|  0.00|   1.6
2023/05/18 12:34:17.000| -2843618.3459|  4805399.8536|  3073091.7319|  2| 33|  0.6491|  0.6456|  0.4079| -0.5878|  0.4588| -0.4486|  5.00|   1.4
2023/05/18 12:34:22.000| -2843618.0339|  4805399.8558|  3073091.6799|  2| 34|  0.6366|  0.6315|  0.3948| -0.5731|  0.4436| -0.4338|  0.00|   1.6
2023/05/18 12:34:27.000| -2843618.0592|  4805399.7642|  3073091.6335|  2| 34|  0.6367|  0.6314|  0.3949| -0.5732|  0.4436| -0.4339|  5.00|   1.4
2023/05/18 12:34:32.000| -2843617.5166|  4805399.6996|  3073091.5002|  2| 34|  0.6367|  0.6313|  0.3949| -0.5732|  0.4436| -0.4339|  0.00|   1.5
2023/05/18 12:34:37.000| -2843617.7097|  4805399.6569|  3073091.4177|  2| 34|  0.6369|  0.6312|  0.3950| -0.5732|  0.4436| -0.4340|  5.00|   1.3
2023/05/18 12:34:42.000| -2843618.2715|  4805399.5318|  3073091.2254|  2| 34|  0.6369|  0.6311|  0.3950| -0.5732|  0.4436| -0.4340|  0.00|   1.5
2023/05/18 12:34:47.000| -2843618.0869|  4805399.4969|  3073091.1477|  2| 34|  0.6370|  0.6310|  0.3951| -0.5732|  0.4436| -0.4341|  5.00|   1.3
2023/05/18 12:34:52.000| -2843617.7601|  4805399.4436|  3073090.9883|  2| 33|  0.6501|  0.6328|  0.3952| -0.5785|  0.4439| -0.4352|  0.00|   1.3
2023/05/18 12:34:57.000| -2843617.4773|  4805399.1180|  3073090.7415|  2| 33|  0.6502|  0.6327|  0.3953| -0.5785|  0.4439| -0.4352|  5.00|   1.2
2023/05/18 12:35:02.000| -2843617.1450|  4805399.0346|  3073090.7785|  2| 33|  0.6502|  0.6325|  0.3953| -0.5784|  0.4439| -0.4352|  0.00|   1.3
2023/05/18 12:35:07.000| -2843617.4950|  4805399.2968|  3073091.0880|  2| 33|  0.6503|  0.6324|  0.3954| -0.5784|  0.4439| -0.4353|  5.00|   1.5
2023/05/18 12:35:12.000| -2843617.1336|  4805398.8014|  3073090.7451|  2| 34|  0.6442|  0.6317|  0.3954| -0.5764|  0.4436| -0.4346|  0.00|   1.5
2023/05/18 12:35:17.000| -2843617.3035|  4805399.1408|  3073090.9145|  2| 34|  0.6442|  0.6316|  0.3954| -0.5764|  0.4436| -0.4346|  5.00|   1.4
2023/05/18 12:35:22.000| -2843616.9396|  4805398.6422|  3073090.7686|  2| 34|  0.6443|  0.6315|  0.3955| -0.5764|  0.4436| -0.4347|  0.00|   1.5
2023/05/18 12:35:27.000| -2843616.9332|  4805398.7190|  3073090.7338|  2| 34|  0.6444|  0.6314|  0.3955| -0.5764|  0.4436| -0.4347|  5.00|   1.5
2023/05/18 12:35:32.000| -2843616.3910|  4805398.3609|  3073090.7199|  2| 34|  0.6378|  0.6301|  0.3956| -0.5732|  0.4434| -0.4345|  0.00|   1.6
2023/05/18 12:35:37.000| -2843616.1974|  4805398.0291|  3073090.6361|  2| 34|  0.6379|  0.6300|  0.3956| -0.5732|  0.4434| -0.4345|  5.00|   1.4
2023/05/18 12:35:42.000| -2843617.5295|  4805398.9761|  3073091.0524|  2| 34|  0.6446|  0.6310|  0.3957| -0.5763|  0.4435| -0.4348|  0.00|   1.6
2023/05/18 12:35:47.000| -2843617.7332|  4805399.1738|  3073091.3279|  2| 34|  0.6446|  0.6309|  0.3957| -0.5763|  0.4435| -0.4348|  5.00|   1.6
2023/05/18 12:35:52.000| -2843616.4314|  4805398.7435|  3073091.1770|  2| 34|  0.6381|  0.6296|  0.3958| -0.5732|  0.4434| -0.4347|  0.00|   1.2
2023/05/18 12:35:57.000| -2843615.7952|  4805398.1736|  3073090.7219|  2| 34|  0.6382|  0.6296|  0.3958| -0.5733|  0.4434| -0.4347|  5.00|   1.3
2023/05/18 12:36:02.000| -2843618.0214|  4805399.1047|  3073090.8730|  2| 34|  0.6383|  0.6294|  0.3959| -0.5732|  0.4434| -0.4347|  0.00|   1.2
2023/05/18 12:36:07.000| -2843618.1527|  4805399.2496|  3073090.9034|  2| 34|  0.6384|  0.6293|  0.3959| -0.5733|  0.4434| -0.4348|  5.00|   1.3
2023/05/18 12:36:12.000| -2843617.4399|  4805398.9796|  3073091.0322|  2| 34|  0.6385|  0.6292|  0.3960| -0.5732|  0.4433| -0.4348|  0.00|   1.1
2023/05/18 12:36:17.000| -2843617.7789|  4805399.2743|  3073091.1364|  2| 34|  0.6386|  0.6291|  0.3960| -0.5733|  0.4433| -0.4349|  5.00|   1.2
2023/05/18 12:36:22.000| -2843617.1378|  4805398.8358|  3073091.0139|  2| 34|  0.6451|  0.6301|  0.3961| -0.5761|  0.4434| -0.4350|  0.00|   1.1
2023/05/18 12:36:27.000| -2843616.7688|  4805398.5660|  3073090.8817|  2| 34|  0.6452|  0.6300|  0.3961| -0.5761|  0.4434| -0.4351|  5.00|   1.1
2023/05/18 12:36:32.000| -2843617.1374|  4805398.4013|  3073090.6155|  2| 34|  0.6452|  0.6298|  0.3962| -0.5761|  0.4433| -0.4351|  0.00|   1.2
2023/05/18 12:36:37.000| -2843617.4039|  4805398.5530|  3073090.8117|  2| 34|  0.6453|  0.6298|  0.3962| -0.5761|  0.4433| -0.4352|  5.00|   1.3
2023/05/18 12:36:42.000| -2843617.0298|  4805398.4238|  3073090.7342|  2| 33|  0.6512|  0.6300|  0.3963| -0.5777|  0.4434| -0.4356|  0.00|   1.2
2023/05/18 12:36:47.000| -2843617.3767|  4805398.7722|  3073090.8159|  2| 33|  0.6513|  0.6299|  0.3964| -0.5777|  0.4434| -0.4357|  5.00|   1.1
2023/05/18 12:36:52.000| -2843618.1376|  4805399.3546|  3073091.3373|  2| 33|  0.6513|  0.6297|  0.3964| -0.5776|  0.4434| -0.4357|  0.00|   1.4
2023/05/18 12:36:57.000| -2843618.0513|  4805399.4760|  3073091.4664|  2| 33|  0.6514|  0.6296|  0.3965| -0.5776|  0.4434| -0.4357|  5.00|   1.2
2023/05/18 12:37:02.000| -2843617.6468|  4805399.2296|  3073091.2592|  2| 33|  0.6514|  0.6295|  0.3965| -0.5775|  0.4433| -0.4357|  0.00|   1.5
2023/05/18 12:37:07.000| -2843617.1568|  4805399.2162|  3073091.1834|  2| 33|  0.6509|  0.6294|  0.3966| -0.5776|  0.4433| -0.4358|  5.00|   1.4
2023/05/18 12:37:12.000| -2843617.9717|  4805399.7358|  3073091.4552|  2| 33|  0.6515|  0.6292|  0.3966| -0.5775|  0.4433| -0.4358|  0.00|   1.6
2023/05/18 12:37:17.000| -2843617.6414|  4805399.4727|  3073091.3807|  2| 33|  0.6516|  0.6292|  0.3967| -0.5774|  0.4433| -0.4358|  5.00|   1.3
2023/05/18 12:37:22.000| -2843618.0693|  4805399.6626|  3073091.4855|  2| 33|  0.6516|  0.6290|  0.3967| -0.5774|  0.4433| -0.4358|  0.00|   1.7
2023/05/18 12:37:27.000| -2843617.7363|  4805399.2258|  3073091.1194|  2| 33|  0.6517|  0.6289|  0.3968| -0.5774|  0.4433| -0.4358|  5.00|   1.5
2023/05/18 12:37:32.000| -2843617.3798|  4805399.2762|  3073091.1534|  2| 33|  0.6517|  0.6288|  0.3968| -0.5773|  0.4432| -0.4358|  0.00|   1.6
2023/05/18 12:37:37.000| -2843617.6471|  4805399.4261|  3073091.3580|  2| 33|  0.6518|  0.6287|  0.3969| -0.5773|  0.4432| -0.4359|  5.00|   1.8
2023/05/18 12:37:42.000| -2843617.5733|  4805399.1284|  3073091.0730|  2| 33|  0.6518|  0.6285|  0.3969| -0.5772|  0.4432| -0.4359|  0.00|   1.6
2023/05/18 12:37:47.000| -2843617.3685|  4805398.8457|  3073090.9535|  2| 33|  0.6519|  0.6284|  0.3970| -0.5772|  0.4432| -0.4359|  5.00|   1.9
2023/05/18 12:37:52.000| -2843617.1441|  4805398.6131|  3073090.7229|  2| 33|  0.6453|  0.6274|  0.3970| -0.5745|  0.4431| -0.4360|  0.00|   1.2
2023/05/18 12:37:57.000| -2843617.2753|  4805398.7159|  3073090.9446|  2| 33|  0.6454|  0.6273|  0.3970| -0.5745|  0.4432| -0.4360|  5.00|   1.3
2023/05/18 12:38:02.000| -2843617.1998|  4805398.5487|  3073090.7372|  2| 33|  0.6455|  0.6272|  0.3971| -0.5745|  0.4431| -0.4360|  0.00|   1.0
2023/05/18 12:38:07.000| -2843617.4577|  4805398.8334|  3073090.7734|  2| 33|  0.6456|  0.6271|  0.3971| -0.5745|  0.4431| -0.4361|  5.00|   1.2
2023/05/18 12:38:12.000| -2843617.0005|  4805398.6793|  3073090.6169|  2| 32|  0.6758|  0.6591|  0.4269| -0.6088|  0.4777| -0.4706|  0.00|   1.2
2023/05/18 12:38:17.000| -2843617.1778|  4805398.8089|  3073090.8177|  2| 32|  0.6759|  0.6590|  0.4269| -0.6088|  0.4776| -0.4706|  5.00|   1.0
2023/05/18 12:38:22.000| -2843616.2648|  4805398.6205|  3073090.8596|  2| 33|  0.6708|  0.6586|  0.4269| -0.6075|  0.4775| -0.4702|  0.00|   1.2
2023/05/18 12:38:27.000| -2843616.1126|  4805398.5456|  3073090.7867|  2| 33|  0.6709|  0.6585|  0.4269| -0.6075|  0.4774| -0.4703|  5.00|   1.0
2023/05/18 12:38:32.000| -2843617.3349|  4805399.0130|  3073091.0236|  2| 32|  0.6760|  0.6585|  0.4269| -0.6086|  0.4774| -0.4706|  0.00|   1.1
2023/05/18 12:38:37.000| -2843617.4919|  4805399.1958|  3073091.1024|  2| 32|  0.6760|  0.6584|  0.4269| -0.6086|  0.4774| -0.4706|  5.00|   1.1
2023/05/18 12:38:42.000| -2843617.4424|  4805399.1471|  3073091.0405|  2| 32|  0.6760|  0.6583|  0.4269| -0.6085|  0.4773| -0.4705|  0.00|   1.2
2023/05/18 12:38:47.000| -2843617.5977|  4805399.3650|  3073091.3049|  2| 32|  0.6761|  0.6581|  0.4270| -0.6084|  0.4773| -0.4705|  5.00|   1.1
2023/05/18 12:38:52.000| -2843617.2867|  4805398.9646|  3073091.1714|  2| 32|  0.6761|  0.6580|  0.4270| -0.6084|  0.4772| -0.4705|  0.00|   1.2
2023/05/18 12:38:57.000| -2843617.3443|  4805398.9480|  3073091.1689|  2| 32|  0.6761|  0.6578|  0.4270| -0.6083|  0.4771| -0.4705|  5.00|   1.0
2023/05/18 12:39:02.000| -2843617.2726|  4805398.9804|  3073091.1155|  2| 32|  0.6761|  0.6577|  0.4270| -0.6082|  0.4770| -0.4705|  0.00|   1.2
2023/05/18 12:39:07.000| -2843617.1667|  4805398.7710|  3073091.0660|  2| 32|  0.6762|  0.6575|  0.4270| -0.6082|  0.4770| -0.4705|  5.00|   1.1
2023/05/18 12:39:12.000| -2843618.0044|  4805399.4859|  3073091.4498|  2| 32|  0.6762|  0.6574|  0.4270| -0.6081|  0.4769| -0.4704|  0.00|   1.3
2023/05/18 12:39:17.000| -2843618.1137|  4805399.5071|  3073091.3651|  2| 32|  0.6762|  0.6572|  0.4270| -0.6081|  0.4769| -0.4704|  5.00|   1.2
2023/05/18 12:39:22.000| -2843618.0340|  4805399.7283|  3073091.2766|  2| 32|  0.6762|  0.6571|  0.4270| -0.6080|  0.4768| -0.4704|  0.00|   1.3
2023/05/18 12:39:27.000| -2843617.5990|  4805399.4083|  3073091.1653|  2| 32|  0.6763|  0.6569|  0.4270| -0.6080|  0.4767| -0.4704|  5.00|   1.2
2023/05/18 12:39:32.000| -2843617.7876|  4805399.7066|  3073091.3203|  2| 32|  0.6432|  0.6484|  0.4233| -0.5897|  0.4704| -0.4577|  0.00|   1.2
2023/05/18 12:39:37.000| -2843617.6306|  4805399.4878|  3073091.1519|  2| 32|  0.6433|  0.6484|  0.4233| -0.5897|  0.4704| -0.4577|  5.00|   1.2
2023/05/18 12:39:42.000| -2843616.3190|  4805399.0741|  3073090.8796|  2| 33|  0.6399|  0.6482|  0.4233| -0.5893|  0.4704| -0.4578|  0.00|   1.1
2023/05/18 12:39:47.000| -2843616.3232|  4805399.0296|  3073090.8429|  2| 33|  0.6400|  0.6481|  0.4233| -0.5893|  0.4704| -0.4579|  5.00|   1.1
2023/05/18 12:39:52.000| -2843619.2126|  4805400.7218|  3073091.7592|  2| 32|  0.6764|  0.6562|  0.4270| -0.6076|  0.4764| -0.4703|  0.00|   1.2
2023/05/18 12:39:57.000| -2843618.8189|  4805400.3506|  3073091.6317|  2| 32|  0.6764|  0.6560|  0.4270| -0.6076|  0.4763| -0.4703|  5.00|   1.0
2023/05/18 12:40:02.000| -2843618.5472|  4805400.2857|  3073091.4999|  2| 32|  0.6437|  0.6478|  0.4234| -0.5897|  0.4702| -0.4578|  0.00|   1.1
2023/05/18 12:40:07.000| -2843618.6701|  4805400.3147|  3073091.5222|  2| 32|  0.6438|  0.6477|  0.4234| -0.5897|  0.4702| -0.4578|  5.00|   1.1
2023/05/18 12:40:12.000| -2843619.5668|  4805400.6940|  3073091.8061|  2| 32|  0.6439|  0.6475|  0.4234| -0.5897|  0.4701| -0.4578|  0.00|   1.1
2023/05/18 12:40:17.000| -2843619.7791|  4805400.7200|  3073091.8215|  2| 32|  0.6440|  0.6475|  0.4235| -0.5897|  0.4701| -0.4579|  5.00|   1.1
2023/05/18 12:40:22.000| -2843618.4821|  4805399.9971|  3073091.3941|  2| 32|  0.6440|  0.6473|  0.4235| -0.5897|  0.4701| -0.4579|  0.00|   1.1
2023/05/18 12:40:27.000| -2843618.5596|  4805400.0545|  3073091.5213|  2| 32|  0.6441|  0.6472|  0.4235| -0.5897|  0.4700| -0.4579|  5.00|   1.3
2023/05/18 12:40:32.000| -2843617.6356|  4805399.6547|  3073091.0736|  2| 32|  0.6442|  0.6471|  0.4235| -0.5896|  0.4700| -0.4579|  0.00|   1.2
2023/05/18 12:40:37.000| -2843617.5755|  4805399.4867|  3073091.0520|  2| 32|  0.6443|  0.6470|  0.4235| -0.5897|  0.4700| -0.4580|  5.00|   1.1
2023/05/18 12:40:42.000| -2843616.9069|  4805399.1418|  3073090.6806|  2| 32|  0.6443|  0.6469|  0.4235| -0.5896|  0.4699| -0.4579|  0.00|   1.2
2023/05/18 12:40:47.000| -2843616.8922|  4805399.0796|  3073090.7540|  2| 32|  0.6445|  0.6468|  0.4236| -0.5897|  0.4699| -0.4580|  5.00|   1.3
2023/05/18 12:40:52.000| -2843616.0971|  4805399.0952|  3073090.8537|  2| 33|  0.6412|  0.6466|  0.4236| -0.5893|  0.4698| -0.4582|  0.00|   1.1
2023/05/18 12:40:57.000| -2843616.4569|  4805399.3803|  3073091.0428|  2| 33|  0.6413|  0.6465|  0.4236| -0.5894|  0.4698| -0.4582|  5.00|   1.2
2023/05/18 12:41:02.000| -2843615.1992|  4805398.8515|  3073090.7146|  2| 33|  0.6413|  0.6464|  0.4236| -0.5893|  0.4697| -0.4582|  0.00|   1.0
2023/05/18 12:41:07.000| -2843615.6379|  4805399.1804|  3073090.9486|  2| 33|  0.6414|  0.6463|  0.4236| -0.5894|  0.4697| -0.4582|  5.00|   1.1
2023/05/18 12:41:12.000| -2843617.2394|  4805399.4343|  3073090.9994|  2| 32|  0.6442|  0.6453|  0.4234| -0.5888|  0.4691| -0.4575|  0.00|   1.0
2023/05/18 12:41:17.000| -2843617.2536|  4805399.4866|  3073091.1361|  2| 32|  0.6449|  0.6461|  0.4237| -0.5896|  0.4696| -0.4581|  5.00|   1.1
2023/05/18 12:41:22.000| -2843617.3843|  4805399.5106|  3073091.1218|  2| 32|  0.6449|  0.6459|  0.4237| -0.5895|  0.4696| -0.4581|  0.00|   1.1
2023/05/18 12:41:27.000| -2843617.4579|  4805399.4996|  3073091.1210|  2| 32|  0.6450|  0.6458|  0.4237| -0.5896|  0.4695| -0.4581|  5.00|   1.0
2023/05/18 12:41:32.000| -2843616.8021|  4805398.9392|  3073090.9995|  2| 32|  0.6451|  0.6457|  0.4237| -0.5895|  0.4695| -0.4581|  0.00|   1.3
2023/05/18 12:41:37.000| -2843616.9008|  4805398.9660|  3073091.0067|  2| 32|  0.6452|  0.6456|  0.4238| -0.5895|  0.4694| -0.4581|  5.00|   1.4
2023/05/18 12:41:42.000| -2843617.1074|  4805398.9678|  3073091.0648|  2| 32|  0.6452|  0.6455|  0.4238| -0.5895|  0.4694| -0.4581|  0.00|   1.2
2023/05/18 12:41:47.000| -2843617.0218|  4805399.0131|  3073091.0231|  2| 32|  0.6453|  0.6454|  0.4238| -0.5895|  0.4693| -0.4581|  5.00|   1.3
2023/05/18 12:41:52.000| -2843616.9980|  4805398.9603|  3073091.2663|  2| 33|  0.6421|  0.6452|  0.4238| -0.5893|  0.4693| -0.4584|  0.00|   1.2
2023/05/18 12:41:57.000| -2843616.7711|  4805398.8784|  3073091.2552|  2| 33|  0.6422|  0.6451|  0.4238| -0.5893|  0.4693| -0.4584|  5.00|   1.3
2023/05/18 12:42:02.000| -2843617.5169|  4805399.3151|  3073091.4670|  2| 33|  0.6423|  0.6450|  0.4238| -0.5893|  0.4692| -0.4584|  0.00|   1.3
2023/05/18 12:42:07.000| -2843617.4285|  4805399.3346|  3073091.3888|  2| 33|  0.6424|  0.6449|  0.4238| -0.5893|  0.4692| -0.4584|  5.00|   1.4
2023/05/18 12:42:12.000| -2843618.0536|  4805399.2765|  3073091.5932|  2| 32|  0.6456|  0.6447|  0.4238| -0.5894|  0.4691| -0.4581|  0.00|   1.2
2023/05/18 12:42:17.000| -2843617.7448|  4805398.9493|  3073091.3259|  2| 32|  0.6457|  0.6446|  0.4239| -0.5894|  0.4691| -0.4582|  5.00|   1.2
2023/05/18 12:42:22.000| -2843617.7956|  4805398.9784|  3073091.2736|  2| 32|  0.6458|  0.6445|  0.4239| -0.5893|  0.4690| -0.4581|  0.00|   1.3
2023/05/18 12:42:27.000| -2843617.5845|  4805398.9938|  3073091.2956|  2| 32|  0.6459|  0.6444|  0.4239| -0.5894|  0.4690| -0.4582|  5.00|   1.5
2023/05/18 12:42:32.000| -2843617.5331|  4805398.9891|  3073091.1829|  2| 32|  0.6459|  0.6442|  0.4239| -0.5893|  0.4689| -0.4582|  0.00|   1.2
2023/05/18 12:42:37.000| -2843617.9135|  4805399.3217|  3073091.2250|  2| 32|  0.6460|  0.6442|  0.4239| -0.5893|  0.4689| -0.4582|  5.00|   1.2
2023/05/18 12:42:42.000| -2843617.2872|  4805399.1172|  3073091.1264|  2| 32|  0.6460|  0.6440|  0.4239| -0.5893|  0.4688| -0.4582|  0.00|   1.3
2023/05/18 12:42:47.000| -2843617.3218|  4805399.1731|  3073091.2233|  2| 32|  0.6461|  0.6439|  0.4240| -0.5893|  0.4687| -0.4582|  5.00|   1.1
2023/05/18 12:42:52.000| -2843616.9841|  4805398.5713|  3073090.9441|  2| 32|  0.6461|  0.6438|  0.4240| -0.5892|  0.4687| -0.4582|  0.00|   1.3
2023/05/18 12:42:57.000| -2843617.0698|  4805398.6911|  3073090.9462|  2| 32|  0.6462|  0.6437|  0.4240| -0.5892|  0.4686| -0.4582|  5.00|   1.3
2023/05/18 12:43:02.000| -2843616.7945|  4805398.5959|  3073090.7784|  2| 32|  0.6463|  0.6435|  0.4240| -0.5892|  0.4686| -0.4582|  0.00|   1.2
2023/05/18 12:43:07.000| -2843616.7766|  4805398.6684|  3073090.7648|  2| 32|  0.6463|  0.6434|  0.4240| -0.5892|  0.4685| -0.4582|  5.00|   1.2
2023/05/18 12:43:12.000| -2843617.0579|  4805398.9430|  3073090.9167|  2| 33|  0.6433|  0.6433|  0.4240| -0.5891|  0.4685| -0.4585|  0.00|   1.2
2023/05/18 12:43:17.000| -2843617.2906|  4805399.1358|  3073091.0270|  2| 33|  0.6434|  0.6432|  0.4240| -0.5891|  0.4684| -0.4585|  5.00|   1.0
2023/05/18 12:43:22.000| -2843617.8547|  4805399.5870|  3073091.3707|  2| 33|  0.6434|  0.6430|  0.4240| -0.5891|  0.4684| -0.4585|  0.00|   1.2
2023/05/18 12:43:27.000| -2843617.7942|  4805399.6093|  3073091.4096|  2| 33|  0.6435|  0.6429|  0.4240| -0.5891|  0.4683| -0.4585|  5.00|   1.1
2023/05/18 12:43:32.000| -2843618.3166|  4805400.1850|  3073091.8388|  2| 33|  0.6435|  0.6428|  0.4240| -0.5890|  0.4682| -0.4585|  0.00|   1.3
2023/05/18 12:43:37.000| -2843618.6851|  4805400.4208|  3073091.9720|  2| 33|  0.6436|  0.6427|  0.4240| -0.5890|  0.4682| -0.4585|  5.00|   1.2
2023/05/18 12:43:42.000| -2843618.9990|  4805400.3997|  3073092.0237|  2| 33|  0.6437|  0.6425|  0.4240| -0.5890|  0.4681| -0.4585|  0.00|   1.3
2023/05/18 12:43:47.000| -2843619.0081|  4805400.4532|  3073092.0394|  2| 33|  0.6438|  0.6424|  0.4240| -0.5890|  0.4681| -0.4585|  5.00|   1.2
2023/05/18 12:43:52.000| -2843618.6672|  4805399.9135|  3073091.5679|  2| 33|  0.6438|  0.6422|  0.4240| -0.5889|  0.4680| -0.4585|  0.00|   1.3
2023/05/18 12:43:57.000| -2843618.3283|  4805399.6157|  3073091.3226|  2| 33|  0.6439|  0.6421|  0.4241| -0.5889|  0.4680| -0.4585|  5.00|   1.1
2023/05/18 12:44:02.000| -2843618.5755|  4805399.8414|  3073091.5853|  2| 33|  0.6439|  0.6420|  0.4241| -0.5889|  0.4679| -0.4585|  0.00|   1.2
2023/05/18 12:44:07.000| -2843618.4798|  4805399.7587|  3073091.4951|  2| 33|  0.6440|  0.6419|  0.4241| -0.5889|  0.4679| -0.4585|  5.00|   1.1
2023/05/18 12:44:12.000| -2843618.2132|  4805399.5587|  3073091.4301|  2| 33|  0.6440|  0.6417|  0.4241| -0.5889|  0.4678| -0.4585|  0.00|   1.5
2023/05/18 12:44:17.000| -2843618.1809|  4805399.5408|  3073091.4132|  2| 33|  0.6441|  0.6416|  0.4241| -0.5889|  0.4677| -0.4585|  5.00|   1.4
2023/05/18 12:44:22.000| -2843618.3470|  4805399.7512|  3073091.5832|  2| 33|  0.6441|  0.6415|  0.4241| -0.5888|  0.4677| -0.4585|  0.00|   1.3
2023/05/18 12:44:27.000| -2843618.5035|  4805399.7156|  3073091.6250|  2| 33|  0.6442|  0.6414|  0.4241| -0.5888|  0.4676| -0.4585|  5.00|   1.2
2023/05/18 12:44:32.000| -2843618.4036|  4805399.3606|  3073091.2811|  2| 33|  0.6443|  0.6412|  0.4241| -0.5888|  0.4675| -0.4585|  0.00|   1.4
2023/05/18 12:44:37.000| -2843618.4720|  4805399.4282|  3073091.3372|  2| 33|  0.6444|  0.6411|  0.4241| -0.5888|  0.4675| -0.4585|  5.00|   1.4
2023/05/18 12:44:42.000| -2843618.3363|  4805399.7874|  3073091.6020|  2| 33|  0.6444|  0.6410|  0.4241| -0.5887|  0.4674| -0.4585|  0.00|   1.5
2023/05/18 12:44:47.000| -2843618.1300|  4805399.5485|  3073091.4480|  2| 33|  0.6445|  0.6409|  0.4241| -0.5887|  0.4674| -0.4585|  5.00|   1.4
2023/05/18 12:44:52.000| -2843617.9942|  4805399.5618|  3073091.2131|  2| 33|  0.6445|  0.6407|  0.4241| -0.5886|  0.4673| -0.4585|  0.00|   1.3
2023/05/18 12:44:57.000| -2843618.0667|  4805399.6223|  3073091.2907|  2| 33|  0.6446|  0.6406|  0.4241| -0.5886|  0.4672| -0.4585|  5.00|   1.3
2023/05/18 12:45:02.000| -2843618.0783|  4805400.0476|  3073091.5378|  2| 33|  0.6446|  0.6404|  0.4241| -0.5886|  0.4672| -0.4584|  0.00|   1.3
2023/05/18 12:45:07.000| -2843618.2296|  4805400.0534|  3073091.5560|  2| 33|  0.6447|  0.6403|  0.4241| -0.5886|  0.4671| -0.4585|  5.00|   1.3
2023/05/18 12:45:12.000| -2843617.9733|  4805399.9025|  3073091.5344|  2| 33|  0.6447|  0.6402|  0.4241| -0.5885|  0.4670| -0.4584|  0.00|   1.2
2023/05/18 12:45:17.000| -2843618.0992|  4805400.1651|  3073091.6795|  2| 33|  0.6448|  0.6401|  0.4242| -0.5885|  0.4670| -0.4584|  5.00|   1.2
2023/05/18 12:45:22.000| -2843617.8747|  4805400.1436|  3073091.6681|  2| 34|  0.6174|  0.6250|  0.4194| -0.5663|  0.4575| -0.4455|  0.00|   1.4
2023/05/18 12:45:27.000| -2843617.9036|  4805400.2713|  3073091.8321|  2| 34|  0.6176|  0.6249|  0.4195| -0.5664|  0.4575| -0.4455|  5.00|   1.4
2023/05/18 12:45:32.000| -2843617.2510|  4805399.5616|  3073091.3533|  2| 34|  0.6192|  0.6337|  0.4258| -0.5705|  0.4658| -0.4491|  0.00|   1.5
2023/05/18 12:45:37.000| -2843617.2671|  4805399.7427|  3073091.4070|  2| 34|  0.6194|  0.6337|  0.4258| -0.5706|  0.4658| -0.4492|  5.00|   1.5
2023/05/18 12:45:42.000| -2843616.5143|  4805399.6761|  3073091.3709|  2| 34|  0.6179|  0.6246|  0.4195| -0.5665|  0.4574| -0.4456|  0.00|   1.3
2023/05/18 12:45:47.000| -2843616.6962|  4805399.8053|  3073091.5605|  2| 34|  0.6180|  0.6246|  0.4196| -0.5665|  0.4574| -0.4456|  5.00|   1.2
2023/05/18 12:45:52.000| -2843616.3277|  4805400.3624|  3073091.5601|  2| 34|  0.6226|  0.6374|  0.4263| -0.5723|  0.4658| -0.4481|  0.00|   1.0
2023/05/18 12:45:57.000| -2843616.2884|  4805400.2944|  3073091.5153|  2| 34|  0.6228|  0.6373|  0.4263| -0.5723|  0.4658| -0.4482|  5.00|   1.0
2023/05/18 12:46:02.000| -2843616.3701|  4805399.0895|  3073091.0401|  2| 34|  0.6208|  0.6243|  0.4199| -0.5666|  0.4572| -0.4447|  0.00|   1.9
2023/05/18 12:46:07.000| -2843616.5891|  4805399.1301|  3073091.2402|  2| 34|  0.6209|  0.6243|  0.4200| -0.5667|  0.4572| -0.4447|  5.00|   1.9
2023/05/18 12:46:12.000| -2843616.7364|  4805399.8303|  3073091.7189|  2| 34|  0.6201|  0.6331|  0.4260| -0.5708|  0.4656| -0.4494|  0.00|   1.4
2023/05/18 12:46:17.000| -2843616.6818|  4805399.6753|  3073091.5954|  2| 34|  0.6202|  0.6330|  0.4260| -0.5709|  0.4656| -0.4494|  5.00|   1.5
2023/05/18 12:46:22.000| -2843618.3263|  4805399.5424|  3073091.2336|  2| 33|  0.6224|  0.6331|  0.4262| -0.5702|  0.4657| -0.4487|  0.00|   1.2
2023/05/18 12:46:27.000| -2843618.4086|  4805399.7179|  3073091.3895|  2| 33|  0.6226|  0.6330|  0.4263| -0.5703|  0.4657| -0.4488|  5.00|   1.2
2023/05/18 12:46:32.000| -2843618.3944|  4805399.6833|  3073091.6018|  2| 33|  0.6237|  0.6239|  0.4202| -0.5662|  0.4572| -0.4441|  0.00|   2.0
2023/05/18 12:46:37.000| -2843618.3006|  4805399.5990|  3073091.4198|  2| 33|  0.6239|  0.6239|  0.4202| -0.5663|  0.4572| -0.4441|  5.00|   2.0
2023/05/18 12:46:42.000| -2843618.0906|  4805399.6941|  3073091.4372|  2| 33|  0.6239|  0.6237|  0.4202| -0.5663|  0.4571| -0.4441|  0.00|   2.0
2023/05/18 12:46:47.000| -2843618.0775|  4805399.8855|  3073091.5083|  2| 33|  0.6240|  0.6237|  0.4203| -0.5663|  0.4571| -0.4442|  5.00|   2.0
2023/05/18 12:46:52.000| -2843617.3347|  4805399.7401|  3073091.4919|  2| 34|  0.6217|  0.6235|  0.4201| -0.5668|  0.4569| -0.4448|  0.00|   1.4
2023/05/18 12:46:57.000| -2843617.3242|  4805399.7115|  3073091.2970|  2| 34|  0.6218|  0.6234|  0.4202| -0.5669|  0.4569| -0.4449|  5.00|   1.4
2023/05/18 12:47:02.000| -2843617.1270|  4805399.5752|  3073091.2139|  2| 34|  0.6219|  0.6233|  0.4202| -0.5669|  0.4568| -0.4449|  0.00|   1.5
2023/05/18 12:47:07.000| -2843617.2401|  4805399.7533|  3073091.3544|  2| 34|  0.6220|  0.6232|  0.4202| -0.5669|  0.4568| -0.4449|  5.00|   1.6
2023/05/18 12:47:12.000| -2843617.8249|  4805399.3587|  3073091.1287|  2| 34|  0.6221|  0.6231|  0.4202| -0.5669|  0.4568| -0.4449|  0.00|   1.9
2023/05/18 12:47:17.000| -2843617.7472|  4805399.3197|  3073091.0758|  2| 34|  0.6222|  0.6231|  0.4203| -0.5669|  0.4568| -0.4449|  5.00|   2.2
2023/05/18 12:47:22.000| -2843617.2964|  4805399.2054|  3073090.9660|  2| 34|  0.5993|  0.6114|  0.4168| -0.5490|  0.4496| -0.4347|  0.00|   1.3
2023/05/18 12:47:27.000| -2843617.2862|  4805399.2081|  3073091.0952|  2| 34|  0.5995|  0.6113|  0.4169| -0.5491|  0.4496| -0.4348|  5.00|   1.2
2023/05/18 12:47:32.000| -2843616.9640|  4805399.3450|  3073091.2441|  2| 34|  0.5977|  0.6112|  0.4164| -0.5493|  0.4495| -0.4359|  0.00|   1.3
2023/05/18 12:47:37.000| -2843616.8342|  4805399.2936|  3073091.1911|  2| 34|  0.5979|  0.6112|  0.4165| -0.5494|  0.4495| -0.4359|  5.00|   1.2
2023/05/18 12:47:42.000| -2843617.7417|  4805399.9241|  3073091.4037|  2| 34|  0.5998|  0.6203|  0.4230| -0.5540|  0.4581| -0.4399|  0.00|   1.3
2023/05/18 12:47:47.000| -2843617.5662|  4805399.6811|  3073091.2754|  2| 34|  0.6000|  0.6203|  0.4230| -0.5541|  0.4581| -0.4400|  5.00|   1.2
2023/05/18 12:47:52.000| -2843618.5034|  4805400.3815|  3073091.5818|  2| 34|  0.5982|  0.6110|  0.4165| -0.5496|  0.4494| -0.4360|  0.00|   1.1
2023/05/18 12:47:57.000| -2843618.2554|  4805400.1758|  3073091.4345|  2| 34|  0.5984|  0.6110|  0.4166| -0.5497|  0.4494| -0.4361|  5.00|   1.0
2023/05/18 12:48:02.000| -2843618.7327|  4805400.4453|  3073091.8616|  2| 33|  0.6022|  0.6112|  0.4173| -0.5487|  0.4498| -0.4343|  0.00|   1.0
2023/05/18 12:48:07.000| -2843618.5825|  4805400.2281|  3073091.6801|  2| 33|  0.6024|  0.6112|  0.4174| -0.5488|  0.4498| -0.4343|  5.00|   1.1
2023/05/18 12:48:12.000| -2843617.6642|  4805399.4791|  3073091.2758|  2| 34|  0.6006|  0.6109|  0.4171| -0.5496|  0.4495| -0.4351|  0.00|   1.1
2023/05/18 12:48:17.000| -2843617.3783|  4805399.1618|  3073091.2499|  2| 34|  0.6008|  0.6109|  0.4172| -0.5496|  0.4495| -0.4352|  5.00|   1.0
2023/05/18 12:48:22.000| -2843617.4346|  4805399.7535|  3073091.5309|  2| 34|  0.5990|  0.6107|  0.4167| -0.5500|  0.4493| -0.4363|  0.00|   1.2
2023/05/18 12:48:27.000| -2843617.5030|  4805399.8193|  3073091.6432|  2| 34|  0.5992|  0.6107|  0.4167| -0.5501|  0.4493| -0.4363|  5.00|   1.3
2023/05/18 12:48:32.000| -2843617.6275|  4805399.9080|  3073091.5692|  2| 34|  0.5993|  0.6106|  0.4168| -0.5501|  0.4493| -0.4364|  0.00|   1.0
2023/05/18 12:48:37.000| -2843617.6993|  4805399.9673|  3073091.6029|  2| 34|  0.5994|  0.6106|  0.4168| -0.5502|  0.4493| -0.4364|  5.00|   1.1
2023/05/18 12:48:42.000| -2843617.8922|  4805399.9911|  3073091.5468|  2| 34|  0.5995|  0.6105|  0.4168| -0.5502|  0.4492| -0.4364|  0.00|   1.0
2023/05/18 12:48:47.000| -2843618.1913|  4805400.2642|  3073091.7105|  2| 34|  0.5997|  0.6105|  0.4169| -0.5503|  0.4492| -0.4365|  5.00|   1.0
2023/05/18 12:48:52.000| -2843618.9814|  4805400.4635|  3073092.0089|  2| 34|  0.5998|  0.6104|  0.4169| -0.5503|  0.4492| -0.4365|  0.00|   1.1
2023/05/18 12:48:57.000| -2843618.9001|  4805400.4456|  3073091.9415|  2| 34|  0.5999|  0.6104|  0.4169| -0.5504|  0.4492| -0.4366|  5.00|   1.0
2023/05/18 12:49:02.000| -2843618.5989|  4805400.4186|  3073091.7235|  2| 34|  0.6020|  0.6195|  0.4235| -0.5550|  0.4578| -0.4406|  0.00|   1.1
