% ref pos   : -2843600.8781|  4805405.9568|  3073120.9033
%  UTC                 |     x-ecef(m)|     y-ecef(m)|     z-ecef(m)|  Q| ns|  sdx(m)|  sdy(m)|  sdz(m)| sdxy(m)| sdyz(m)| sdzx(m)|age(s)| ratio
2023/05/18 10:15:02.000| -2843617.0505|  4805398.7558|  3073090.7199|  2| 34|  0.4407|  0.4999|  0.3170| -0.3838|  0.3049| -0.2976|  0.00|   1.3
2023/05/18 10:15:07.000| -2843617.1204|  4805398.7005|  3073090.7345|  2| 35|  0.4339|  0.4953|  0.3147| -0.3769|  0.3006| -0.2926|  5.00|   1.3
2023/05/18 10:15:12.000| -2843617.2325|  4805398.6449|  3073090.7475|  2| 35|  0.4339|  0.4951|  0.3147| -0.3768|  0.3005| -0.2926|  0.00|   1.3
2023/05/18 10:15:17.000| -2843617.1504|  4805398.5312|  3073090.6927|  2| 35|  0.4340|  0.4950|  0.3147| -0.3768|  0.3005| -0.2927|  5.00|   1.4
2023/05/18 10:15:22.000| -2843617.4718|  4805398.9634|  3073090.7190|  2| 35|  0.4341|  0.4949|  0.3148| -0.3767|  0.3005| -0.2927|  0.00|   1.3
2023/05/18 10:15:27.000| -2843617.5552|  4805399.1046|  3073090.8037|  2| 35|  0.4342|  0.4948|  0.3148| -0.3767|  0.3005| -0.2928|  5.00|   1.4
2023/05/18 10:15:32.000| -2843617.7232|  4805399.3202|  3073091.1200|  2| 35|  0.4342|  0.4947|  0.3149| -0.3767|  0.3005| -0.2928|  0.00|   1.3
2023/05/18 10:15:37.000| -2843617.9974|  4805399.5329|  3073091.3351|  2| 35|  0.4343|  0.4946|  0.3149| -0.3766|  0.3005| -0.2929|  5.00|   1.4
2023/05/18 10:15:42.000| -2843617.8973|  4805399.4128|  3073091.3661|  2| 35|  0.4344|  0.4945|  0.3150| -0.3766|  0.3005| -0.2929|  0.00|   1.4
2023/05/18 10:15:47.000| -2843618.2420|  4805399.8715|  3073091.6137|  2| 35|  0.4345|  0.4944|  0.3150| -0.3766|  0.3005| -0.2930|  5.00|   1.3
2023/05/18 10:15:52.000| -2843618.9790|  4805400.4997|  3073092.1346|  2| 35|  0.4346|  0.4942|  0.3151| -0.3765|  0.3005| -0.2931|  0.00|   1.3
2023/05/18 10:15:57.000| -2843618.6611|  4805400.1460|  3073091.8847|  2| 35|  0.4347|  0.4942|  0.3151| -0.3765|  0.3005| -0.2931|  5.00|   1.4
2023/05/18 10:16:02.000| -2843618.9135|  4805400.5907|  3073092.0647|  2| 35|  0.4347|  0.4940|  0.3152| -0.3764|  0.3005| -0.2932|  0.00|   1.3
2023/05/18 10:16:07.000| -2843619.1422|  4805400.6041|  3073092.0952|  2| 35|  0.4348|  0.4939|  0.3152| -0.3764|  0.3005| -0.2932|  5.00|   1.4
2023/05/18 10:16:12.000| -2843619.3506|  4805400.5465|  3073092.3095|  2| 35|  0.4349|  0.4938|  0.3153| -0.3764|  0.3005| -0.2933|  0.00|   1.3
2023/05/18 10:16:17.000| -2843619.2164|  4805400.3724|  3073092.2480|  2| 35|  0.4350|  0.4937|  0.3153| -0.3764|  0.3005| -0.2934|  5.00|   1.5
2023/05/18 10:16:22.000| -2843618.7106|  4805400.0552|  3073091.7660|  2| 36|  0.4287|  0.4903|  0.3075| -0.3706|  0.2938| -0.2844|  0.00|   1.4
2023/05/18 10:16:27.000| -2843618.8031|  4805400.1574|  3073091.9099|  2| 36|  0.4288|  0.4902|  0.3076| -0.3706|  0.2938| -0.2845|  5.00|   1.6
2023/05/18 10:16:32.000| -2843618.7061|  4805400.2649|  3073091.7008|  2| 36|  0.4288|  0.4901|  0.3076| -0.3706|  0.2938| -0.2845|  0.00|   1.3
2023/05/18 10:16:37.000| -2843618.3147|  4805399.9983|  3073091.5644|  2| 36|  0.4289|  0.4900|  0.3077| -0.3705|  0.2938| -0.2846|  5.00|   1.4
2023/05/18 10:16:42.000| -2843617.8145|  4805399.7215|  3073091.2523|  2| 36|  0.4290|  0.4899|  0.3077| -0.3705|  0.2937| -0.2846|  0.00|   1.4
2023/05/18 10:16:47.000| -2843617.9986|  4805399.7841|  3073091.3103|  2| 36|  0.4291|  0.4898|  0.3078| -0.3705|  0.2937| -0.2847|  5.00|   1.6
2023/05/18 10:16:52.000| -2843617.8420|  4805399.6793|  3073091.1488|  2| 36|  0.4291|  0.4896|  0.3078| -0.3704|  0.2937| -0.2847|  0.00|   1.4
2023/05/18 10:16:57.000| -2843617.5993|  4805399.5737|  3073090.9734|  2| 36|  0.4292|  0.4896|  0.3079| -0.3704|  0.2937| -0.2848|  5.00|   1.6
2023/05/18 10:17:02.000| -2843618.5262|  4805399.8812|  3073091.5404|  2| 36|  0.4293|  0.4894|  0.3079| -0.3703|  0.2937| -0.2849|  0.00|   1.2
2023/05/18 10:17:07.000| -2843618.2018|  4805399.7143|  3073091.2565|  2| 36|  0.4294|  0.4894|  0.3080| -0.3703|  0.2937| -0.2849|  5.00|   1.8
2023/05/18 10:17:12.000| -2843618.3222|  4805399.4664|  3073091.4875|  2| 36|  0.4294|  0.4892|  0.3080| -0.3703|  0.2937| -0.2850|  0.00|   1.2
2023/05/18 10:17:17.000| -2843618.0221|  4805399.4157|  3073091.2022|  2| 36|  0.4295|  0.4891|  0.3081| -0.3702|  0.2937| -0.2850|  5.00|   1.5
2023/05/18 10:17:22.000| -2843617.8411|  4805399.2216|  3073091.1721|  2| 36|  0.4296|  0.4890|  0.3081| -0.3702|  0.2937| -0.2851|  0.00|   1.6
2023/05/18 10:17:27.000| -2843617.5264|  4805399.1639|  3073091.0446|  2| 36|  0.4297|  0.4889|  0.3082| -0.3702|  0.2937| -0.2851|  5.00|   1.4
2023/05/18 10:17:32.000| -2843617.9243|  4805399.4985|  3073091.2208|  2| 36|  0.4297|  0.4888|  0.3082| -0.3701|  0.2937| -0.2852|  0.00|   1.5
2023/05/18 10:17:37.000| -2843618.0651|  4805399.5856|  3073091.2852|  2| 36|  0.4298|  0.4887|  0.3083| -0.3701|  0.2937| -0.2853|  5.00|   1.5
2023/05/18 10:17:42.000| -2843618.1207|  4805399.7430|  3073091.4131|  2| 35|  0.4429|  0.4914|  0.3170| -0.3775|  0.3002| -0.2988|  0.00|   1.9
2023/05/18 10:17:47.000| -2843617.8077|  4805399.4850|  3073091.1057|  2| 36|  0.4300|  0.4885|  0.3084| -0.3700|  0.2937| -0.2854|  5.00|   1.2
2023/05/18 10:17:52.000| -2843618.0313|  4805399.8143|  3073091.2310|  2| 36|  0.4301|  0.4884|  0.3084| -0.3700|  0.2937| -0.2854|  0.00|   1.4
2023/05/18 10:17:57.000| -2843617.9551|  4805399.6066|  3073091.1249|  2| 36|  0.4302|  0.4883|  0.3085| -0.3700|  0.2937| -0.2855|  5.00|   1.7
2023/05/18 10:18:02.000| -2843617.9503|  4805399.7572|  3073091.1245|  2| 36|  0.4302|  0.4882|  0.3085| -0.3699|  0.2937| -0.2855|  0.00|   1.4
2023/05/18 10:18:07.000| -2843618.0069|  4805399.7554|  3073090.9909|  2| 36|  0.4303|  0.4881|  0.3086| -0.3699|  0.2937| -0.2856|  5.00|   1.7
2023/05/18 10:18:12.000| -2843618.0974|  4805399.7909|  3073091.0324|  2| 36|  0.4304|  0.4880|  0.3086| -0.3699|  0.2937| -0.2857|  0.00|   1.4
2023/05/18 10:18:17.000| -2843618.4090|  4805399.8903|  3073091.1739|  2| 36|  0.4305|  0.4879|  0.3087| -0.3698|  0.2937| -0.2857|  5.00|   1.6
2023/05/18 10:18:22.000| -2843618.1628|  4805399.6637|  3073091.1182|  2| 36|  0.4305|  0.4878|  0.3087| -0.3698|  0.2937| -0.2858|  0.00|   1.4
2023/05/18 10:18:27.000| -2843618.1071|  4805399.5675|  3073091.0854|  2| 36|  0.4306|  0.4877|  0.3088| -0.3698|  0.2937| -0.2858|  5.00|   2.0
2023/05/18 10:18:32.000| -2843618.2191|  4805399.8397|  3073091.0125|  2| 36|  0.4307|  0.4876|  0.3088| -0.3697|  0.2937| -0.2859|  0.00|   1.3
2023/05/18 10:18:37.000| -2843618.0320|  4805399.7819|  3073090.9189|  2| 36|  0.4308|  0.4875|  0.3089| -0.3697|  0.2937| -0.2860|  5.00|   1.6
2023/05/18 10:18:42.000| -2843617.7922|  4805399.7168|  3073091.1415|  2| 36|  0.4309|  0.4874|  0.3089| -0.3697|  0.2937| -0.2860|  0.00|   1.5
2023/05/18 10:18:47.000| -2843617.8036|  4805399.7535|  3073091.1574|  2| 36|  0.4310|  0.4873|  0.3090| -0.3697|  0.2937| -0.2861|  5.00|   1.7
2023/05/18 10:18:52.000| -2843618.0609|  4805399.5026|  3073091.2184|  2| 35|  0.4443|  0.4901|  0.3179| -0.3773|  0.3004| -0.2998|  0.00|   1.5
2023/05/18 10:18:57.000| -2843618.0958|  4805399.6628|  3073091.2848|  2| 35|  0.4445|  0.4901|  0.3179| -0.3773|  0.3004| -0.2999|  5.00|   2.1
2023/05/18 10:19:02.000| -2843618.4679|  4805400.0918|  3073091.6382|  2| 36|  0.4312|  0.4870|  0.3091| -0.3696|  0.2938| -0.2863|  0.00|   1.3
2023/05/18 10:19:07.000| -2843617.8857|  4805399.6014|  3073091.1577|  2| 36|  0.4313|  0.4870|  0.3092| -0.3696|  0.2938| -0.2863|  5.00|   1.6
2023/05/18 10:19:12.000| -2843618.1415|  4805399.8623|  3073091.5306|  2| 36|  0.4314|  0.4869|  0.3093| -0.3695|  0.2938| -0.2864|  0.00|   1.4
2023/05/18 10:19:17.000| -2843617.8611|  4805399.5603|  3073091.3668|  2| 35|  0.4449|  0.4897|  0.3182| -0.3773|  0.3005| -0.3003|  5.00|   2.2
2023/05/18 10:19:22.000| -2843617.9104|  4805399.6658|  3073091.4044|  2| 35|  0.4450|  0.4896|  0.3183| -0.3773|  0.3005| -0.3003|  0.00|   1.7
2023/05/18 10:19:27.000| -2843617.9496|  4805399.5676|  3073091.4039|  2| 35|  0.4451|  0.4896|  0.3183| -0.3773|  0.3006| -0.3004|  5.00|   2.1
2023/05/18 10:19:32.000| -2843617.6414|  4805398.8228|  3073091.2249|  2| 35|  0.4452|  0.4895|  0.3184| -0.3773|  0.3006| -0.3005|  0.00|   1.8
2023/05/18 10:19:37.000| -2843617.6189|  4805399.1086|  3073091.2205|  2| 35|  0.4453|  0.4894|  0.3185| -0.3773|  0.3006| -0.3006|  5.00|   2.1
2023/05/18 10:19:42.000| -2843617.7638|  4805398.7878|  3073091.0313|  2| 35|  0.4454|  0.4893|  0.3185| -0.3772|  0.3006| -0.3007|  0.00|   1.6
2023/05/18 10:19:47.000| -2843617.8242|  4805398.9891|  3073091.1279|  2| 35|  0.4455|  0.4892|  0.3186| -0.3773|  0.3006| -0.3007|  5.00|   1.7
2023/05/18 10:19:52.000| -2843618.0275|  4805399.0864|  3073091.1185|  2| 35|  0.4446|  0.4887|  0.3183| -0.3764|  0.3001| -0.3000|  0.00|   1.8
2023/05/18 10:19:57.000| -2843618.4246|  4805399.4280|  3073091.3952|  2| 35|  0.4458|  0.4891|  0.3187| -0.3773|  0.3007| -0.3009|  5.00|   1.9
2023/05/18 10:20:02.000| -2843618.2424|  4805399.5842|  3073091.3169|  2| 35|  0.4458|  0.4890|  0.3188| -0.3772|  0.3007| -0.3010|  0.00|   1.8
2023/05/18 10:20:07.000| -2843618.1327|  4805399.5275|  3073091.2386|  2| 35|  0.4460|  0.4889|  0.3189| -0.3773|  0.3007| -0.3011|  5.00|   1.8
2023/05/18 10:20:12.000| -2843618.0609|  4805399.7839|  3073091.3111|  2| 35|  0.4461|  0.4888|  0.3189| -0.3772|  0.3008| -0.3012|  0.00|   1.7
2023/05/18 10:20:17.000| -2843618.1474|  4805399.9449|  3073091.2751|  2| 35|  0.4462|  0.4888|  0.3190| -0.3772|  0.3008| -0.3013|  5.00|   1.7
2023/05/18 10:20:22.000| -2843618.2971|  4805400.0597|  3073091.3912|  2| 35|  0.4463|  0.4887|  0.3191| -0.3772|  0.3008| -0.3013|  0.00|   1.8
2023/05/18 10:20:27.000| -2843618.3239|  4805399.8649|  3073091.3816|  2| 35|  0.4464|  0.4886|  0.3191| -0.3772|  0.3008| -0.3014|  5.00|   1.9
2023/05/18 10:20:32.000| -2843618.4174|  4805400.1190|  3073091.4805|  2| 35|  0.4465|  0.4885|  0.3192| -0.3772|  0.3009| -0.3015|  0.00|   1.6
2023/05/18 10:20:37.000| -2843618.4692|  4805400.0441|  3073091.4963|  2| 35|  0.4466|  0.4885|  0.3193| -0.3772|  0.3009| -0.3016|  5.00|   2.1
2023/05/18 10:20:42.000| -2843618.2948|  4805399.7595|  3073091.2900|  2| 35|  0.4467|  0.4884|  0.3193| -0.3772|  0.3009| -0.3017|  0.00|   1.6
2023/05/18 10:20:47.000| -2843617.9987|  4805399.5277|  3073091.1467|  2| 35|  0.4469|  0.4883|  0.3194| -0.3773|  0.3009| -0.3018|  5.00|   2.3
2023/05/18 10:20:52.000| -2843618.3650|  4805399.6874|  3073091.4144|  2| 35|  0.4470|  0.4882|  0.3195| -0.3772|  0.3010| -0.3018|  0.00|   1.6
2023/05/18 10:20:57.000| -2843618.2369|  4805399.5845|  3073091.3503|  2| 35|  0.4471|  0.4882|  0.3195| -0.3773|  0.3010| -0.3019|  5.00|   1.9
2023/05/18 10:21:02.000| -2843618.1263|  4805399.5295|  3073091.3057|  2| 35|  0.4472|  0.4881|  0.3196| -0.3772|  0.3010| -0.3020|  0.00|   1.5
2023/05/18 10:21:07.000| -2843618.0842|  4805399.5326|  3073091.3414|  2| 35|  0.4471|  0.4873|  0.3195| -0.3768|  0.3006| -0.3019|  5.00|   1.8
2023/05/18 10:21:12.000| -2843617.7638|  4805399.6560|  3073091.2217|  2| 35|  0.4474|  0.4879|  0.3197| -0.3773|  0.3011| -0.3022|  0.00|   1.5
2023/05/18 10:21:17.000| -2843617.6931|  4805399.7305|  3073091.2743|  2| 35|  0.4476|  0.4879|  0.3198| -0.3773|  0.3011| -0.3023|  5.00|   2.1
2023/05/18 10:21:22.000| -2843617.6294|  4805399.5671|  3073091.1876|  2| 35|  0.4477|  0.4878|  0.3199| -0.3773|  0.3011| -0.3024|  0.00|   1.5
2023/05/18 10:21:27.000| -2843617.7873|  4805399.7138|  3073091.3106|  2| 35|  0.4478|  0.4878|  0.3200| -0.3773|  0.3012| -0.3025|  5.00|   1.8
2023/05/18 10:21:32.000| -2843618.0563|  4805399.9910|  3073091.4369|  2| 35|  0.4479|  0.4877|  0.3200| -0.3773|  0.3012| -0.3026|  0.00|   1.5
2023/05/18 10:21:37.000| -2843617.9795|  4805400.0264|  3073091.5276|  2| 35|  0.4480|  0.4876|  0.3201| -0.3773|  0.3012| -0.3027|  5.00|   2.0
2023/05/18 10:21:42.000| -2843617.6351|  4805399.4347|  3073091.1867|  2| 35|  0.4481|  0.4875|  0.3202| -0.3773|  0.3013| -0.3027|  0.00|   1.6
2023/05/18 10:21:47.000| -2843617.4879|  4805399.3267|  3073091.1279|  2| 35|  0.4483|  0.4875|  0.3203| -0.3773|  0.3013| -0.3028|  5.00|   2.0
2023/05/18 10:21:52.000| -2843617.3404|  4805399.2378|  3073091.1708|  2| 35|  0.4484|  0.4874|  0.3203| -0.3773|  0.3013| -0.3029|  0.00|   1.6
2023/05/18 10:21:57.000| -2843617.3190|  4805399.1431|  3073091.0827|  2| 35|  0.4485|  0.4874|  0.3204| -0.3773|  0.3014| -0.3030|  5.00|   2.1
2023/05/18 10:22:02.000| -2843617.0694|  4805398.8720|  3073090.6793|  2| 35|  0.4486|  0.4873|  0.3205| -0.3773|  0.3014| -0.3031|  0.00|   1.5
2023/05/18 10:22:07.000| -2843617.1404|  4805399.0099|  3073090.8174|  2| 35|  0.4488|  0.4872|  0.3205| -0.3774|  0.3014| -0.3032|  5.00|   2.0
2023/05/18 10:22:12.000| -2843617.3020|  4805399.0323|  3073090.8563|  2| 35|  0.4489|  0.4871|  0.3206| -0.3774|  0.3015| -0.3033|  0.00|   1.7
2023/05/18 10:22:17.000| -2843617.4242|  4805399.2717|  3073090.9652|  2| 35|  0.4490|  0.4871|  0.3207| -0.3774|  0.3015| -0.3034|  5.00|   1.7
2023/05/18 10:22:22.000| -2843617.4167|  4805399.5028|  3073091.2989|  2| 35|  0.4491|  0.4870|  0.3207| -0.3774|  0.3015| -0.3035|  0.00|   1.7
2023/05/18 10:22:27.000| -2843617.2582|  4805399.2760|  3073091.2142|  2| 35|  0.4492|  0.4870|  0.3208| -0.3774|  0.3016| -0.3036|  5.00|   1.9
2023/05/18 10:22:32.000| -2843617.4902|  4805399.1667|  3073091.2167|  2| 35|  0.4493|  0.4869|  0.3209| -0.3774|  0.3016| -0.3037|  0.00|   1.7
2023/05/18 10:22:37.000| -2843617.7050|  4805399.2266|  3073091.3116|  2| 35|  0.4495|  0.4869|  0.3210| -0.3774|  0.3017| -0.3038|  5.00|   2.0
2023/05/18 10:22:42.000| -2843617.6527|  4805399.2411|  3073091.1083|  2| 35|  0.4496|  0.4868|  0.3210| -0.3774|  0.3017| -0.3039|  0.00|   1.8
2023/05/18 10:22:47.000| -2843617.6806|  4805399.2352|  3073091.1493|  2| 35|  0.4497|  0.4867|  0.3211| -0.3775|  0.3017| -0.3040|  5.00|   1.6
2023/05/18 10:22:52.000| -2843617.8484|  4805399.5090|  3073091.1906|  2| 35|  0.4319|  0.4839|  0.3074| -0.3688|  0.2937| -0.2842|  0.00|   1.6
2023/05/18 10:22:57.000| -2843617.8682|  4805399.4842|  3073091.2212|  2| 35|  0.4320|  0.4839|  0.3075| -0.3688|  0.2937| -0.2842|  5.00|   1.5
2023/05/18 10:23:02.000| -2843617.5734|  4805399.0894|  3073091.1121|  2| 36|  0.4174|  0.4816|  0.2961| -0.3618|  0.2872| -0.2675|  0.00|   1.7
2023/05/18 10:23:07.000| -2843617.7524|  4805399.2031|  3073091.3106|  2| 36|  0.4175|  0.4816|  0.2962| -0.3618|  0.2873| -0.2676|  5.00|   1.8
2023/05/18 10:23:12.000| -2843617.5758|  4805399.2318|  3073091.1671|  2| 35|  0.4186|  0.4855|  0.3014| -0.3643|  0.2932| -0.2706|  0.00|   2.9
2023/05/18 10:23:17.000| -2843617.9031|  4805399.4877|  3073091.2249|  1| 35|  0.0059|  0.0067|  0.0040| -0.0051|  0.0039| -0.0036|  5.00|   3.4
2023/05/18 10:23:22.000| -2843617.8902|  4805399.4891|  3073091.2222|  1| 35|  0.0042|  0.0049|  0.0030| -0.0037|  0.0030| -0.0027|  0.00|   3.4
2023/05/18 10:23:27.000| -2843617.1864|  4805399.2287|  3073090.8212|  2| 35|  0.4189|  0.4853|  0.3015| -0.3644|  0.2933| -0.2708|  5.00|   2.5
2023/05/18 10:23:32.000| -2843617.8894|  4805399.4871|  3073091.2211|  1| 35|  0.0042|  0.0049|  0.0031| -0.0037|  0.0030| -0.0027|  0.00|   3.4
2023/05/18 10:23:37.000| -2843617.1751|  4805399.1442|  3073090.7641|  2| 35|  0.4190|  0.4852|  0.3016| -0.3644|  0.2934| -0.2710|  5.00|   2.7
2023/05/18 10:23:42.000| -2843617.8874|  4805399.4847|  3073091.2182|  1| 34|  0.0044|  0.0049|  0.0032| -0.0038|  0.0030| -0.0029|  0.00|   3.8
2023/05/18 10:23:47.000| -2843617.5799|  4805399.6608|  3073091.1514|  2| 34|  0.4344|  0.4875|  0.3135| -0.3718|  0.3003| -0.2885|  5.00|   2.9
2023/05/18 10:23:52.000| -2843617.8895|  4805399.4886|  3073091.2203|  1| 35|  0.0042|  0.0049|  0.0031| -0.0037|  0.0030| -0.0027|  0.00|   3.6
2023/05/18 10:23:57.000| -2843618.1923|  4805400.2850|  3073091.6241|  2| 35|  0.4194|  0.4850|  0.3018| -0.3644|  0.2935| -0.2712|  5.00|   2.6
2023/05/18 10:24:02.000| -2843617.8917|  4805399.4931|  3073091.2221|  1| 34|  0.0044|  0.0049|  0.0032| -0.0038|  0.0030| -0.0029|  0.00|   3.6
2023/05/18 10:24:07.000| -2843617.8792|  4805400.0135|  3073091.4869|  2| 34|  0.4349|  0.4873|  0.3138| -0.3719|  0.3004| -0.2888|  5.00|   2.7
2023/05/18 10:24:12.000| -2843617.8891|  4805399.4929|  3073091.2202|  1| 35|  0.0042|  0.0049|  0.0031| -0.0037|  0.0030| -0.0028|  0.00|   3.1
2023/05/18 10:24:17.000| -2843618.1470|  4805399.9820|  3073091.6798|  2| 35|  0.4197|  0.4848|  0.3020| -0.3645|  0.2936| -0.2715|  5.00|   2.8
2023/05/18 10:24:22.000| -2843617.8892|  4805399.4934|  3073091.2204|  1| 35|  0.0042|  0.0049|  0.0031| -0.0037|  0.0030| -0.0028|  0.00|   3.1
2023/05/18 10:24:27.000| -2843617.6273|  4805399.5744|  3073091.1817|  2| 35|  0.4206|  0.4903|  0.3060| -0.3669|  0.2997| -0.2737|  5.00|   2.3
2023/05/18 10:24:32.000| -2843617.4216|  4805399.2798|  3073091.0444|  2| 35|  0.4200|  0.4846|  0.3021| -0.3645|  0.2937| -0.2716|  0.00|   3.0
2023/05/18 10:24:37.000| -2843617.4853|  4805399.0309|  3073090.9323|  2| 35|  0.4201|  0.4846|  0.3022| -0.3646|  0.2937| -0.2717|  5.00|   2.2
2023/05/18 10:24:42.000| -2843617.2248|  4805398.6935|  3073090.8786|  2| 35|  0.4202|  0.4845|  0.3022| -0.3646|  0.2937| -0.2718|  0.00|   2.6
2023/05/18 10:24:47.000| -2843617.3936|  4805398.9016|  3073091.0608|  2| 35|  0.4203|  0.4845|  0.3023| -0.3646|  0.2938| -0.2718|  5.00|   2.6
2023/05/18 10:24:52.000| -2843617.2693|  4805398.4716|  3073091.0338|  2| 35|  0.4204|  0.4844|  0.3023| -0.3646|  0.2938| -0.2719|  0.00|   2.6
2023/05/18 10:24:57.000| -2843616.9751|  4805398.1490|  3073090.8274|  2| 35|  0.4205|  0.4844|  0.3024| -0.3646|  0.2938| -0.2720|  5.00|   2.4
2023/05/18 10:25:02.000| -2843617.1386|  4805398.6050|  3073090.9669|  2| 35|  0.4205|  0.4843|  0.3024| -0.3646|  0.2939| -0.2720|  0.00|   1.9
2023/05/18 10:25:07.000| -2843617.3679|  4805398.9735|  3073091.0886|  2| 35|  0.4207|  0.4843|  0.3025| -0.3647|  0.2939| -0.2721|  5.00|   2.2
2023/05/18 10:25:12.000| -2843617.9199|  4805399.3288|  3073091.4109|  2| 35|  0.4207|  0.4842|  0.3025| -0.3647|  0.2939| -0.2722|  0.00|   2.7
2023/05/18 10:25:17.000| -2843617.9198|  4805399.5974|  3073091.5055|  2| 35|  0.4208|  0.4842|  0.3026| -0.3647|  0.2940| -0.2722|  5.00|   2.7
2023/05/18 10:25:22.000| -2843618.2754|  4805399.8781|  3073091.8029|  2| 35|  0.4216|  0.4896|  0.3065| -0.3671|  0.3000| -0.2744|  0.00|   2.1
2023/05/18 10:25:27.000| -2843618.4475|  4805399.9897|  3073091.8333|  2| 35|  0.4210|  0.4841|  0.3027| -0.3648|  0.2941| -0.2724|  5.00|   2.4
2023/05/18 10:25:32.000| -2843618.3909|  4805399.9992|  3073091.7445|  2| 35|  0.4218|  0.4895|  0.3066| -0.3671|  0.3001| -0.2746|  0.00|   2.1
2023/05/18 10:25:37.000| -2843618.2432|  4805399.8933|  3073091.6376|  2| 35|  0.4219|  0.4895|  0.3067| -0.3672|  0.3001| -0.2746|  5.00|   2.2
2023/05/18 10:25:42.000| -2843618.0922|  4805399.8073|  3073091.5618|  2| 35|  0.4220|  0.4894|  0.3067| -0.3672|  0.3002| -0.2747|  0.00|   1.9
2023/05/18 10:25:47.000| -2843617.7386|  4805399.5852|  3073091.2388|  2| 35|  0.4221|  0.4894|  0.3068| -0.3672|  0.3002| -0.2748|  5.00|   2.1
2023/05/18 10:25:52.000| -2843617.4440|  4805399.2520|  3073091.5093|  2| 36|  0.4068|  0.4819|  0.3060| -0.3539|  0.3029| -0.2787|  0.00|   1.1
2023/05/18 10:25:57.000| -2843617.7307|  4805399.5626|  3073091.7478|  2| 36|  0.4069|  0.4818|  0.3061| -0.3540|  0.3030| -0.2787|  5.00|   0.0
2023/05/18 10:26:02.000| -2843617.4878|  4805399.4467|  3073091.5513|  2| 36|  0.4062|  0.4760|  0.3023| -0.3513|  0.2970| -0.2766|  0.00|   1.1
2023/05/18 10:26:07.000| -2843617.5184|  4805399.4946|  3073091.5143|  2| 36|  0.4071|  0.4818|  0.3062| -0.3540|  0.3030| -0.2789|  5.00|   0.0
2023/05/18 10:26:12.000| -2843617.5645|  4805399.6202|  3073091.4064|  2| 36|  0.4072|  0.4817|  0.3062| -0.3540|  0.3031| -0.2790|  0.00|   1.1
2023/05/18 10:26:17.000| -2843617.7599|  4805399.7111|  3073091.4577|  2| 36|  0.4166|  0.4842|  0.3128| -0.3601|  0.3082| -0.2888|  5.00|   1.1
2023/05/18 10:26:22.000| -2843618.1478|  4805399.9538|  3073091.4757|  2| 35|  0.4177|  0.4906|  0.3172| -0.3633|  0.3149| -0.2915|  0.00|   1.5
2023/05/18 10:26:27.000| -2843618.1588|  4805399.9808|  3073091.5735|  2| 35|  0.4178|  0.4905|  0.3172| -0.3634|  0.3149| -0.2916|  5.00|   0.0
2023/05/18 10:26:32.000| -2843618.2714|  4805400.0875|  3073091.5287|  2| 35|  0.4179|  0.4905|  0.3173| -0.3634|  0.3150| -0.2916|  0.00|   1.5
2023/05/18 10:26:37.000| -2843618.0205|  4805400.1564|  3073091.4977|  2| 35|  0.4180|  0.4905|  0.3173| -0.3635|  0.3150| -0.2917|  5.00|   1.8
2023/05/18 10:26:42.000| -2843618.0804|  4805400.3231|  3073091.5753|  2| 35|  0.4181|  0.4904|  0.3174| -0.3635|  0.3150| -0.2918|  0.00|   1.6
2023/05/18 10:26:47.000| -2843618.1488|  4805400.2596|  3073091.5409|  2| 35|  0.4183|  0.4904|  0.3174| -0.3635|  0.3151| -0.2919|  5.00|   1.6
2023/05/18 10:26:52.000| -2843618.3122|  4805400.4757|  3073091.7219|  2| 35|  0.4184|  0.4903|  0.3175| -0.3636|  0.3151| -0.2920|  0.00|   0.0
2023/05/18 10:26:57.000| -2843618.3063|  4805400.4026|  3073091.5618|  2| 35|  0.4185|  0.4903|  0.3176| -0.3636|  0.3152| -0.2921|  5.00|   1.6
2023/05/18 10:27:02.000| -2843618.5248|  4805400.3926|  3073091.7351|  2| 35|  0.4186|  0.4903|  0.3176| -0.3637|  0.3152| -0.2922|  0.00|   1.6
2023/05/18 10:27:07.000| -2843618.5148|  4805400.2117|  3073091.5758|  2| 35|  0.4197|  0.4972|  0.3221| -0.3670|  0.3222| -0.2949|  5.00|   1.6
2023/05/18 10:27:12.000| -2843618.3639|  4805399.9750|  3073091.4398|  2| 35|  0.4198|  0.4972|  0.3221| -0.3671|  0.3222| -0.2950|  0.00|   0.0
2023/05/18 10:27:17.000| -2843618.2630|  4805399.7163|  3073091.3307|  2| 35|  0.4200|  0.4971|  0.3222| -0.3671|  0.3223| -0.2951|  5.00|   1.5
2023/05/18 10:27:22.000| -2843618.0857|  4805399.7933|  3073090.9966|  2| 35|  0.4201|  0.4971|  0.3222| -0.3672|  0.3223| -0.2951|  0.00|   1.5
2023/05/18 10:27:27.000| -2843618.0729|  4805399.7491|  3073090.9376|  2| 35|  0.4202|  0.4970|  0.3223| -0.3672|  0.3223| -0.2952|  5.00|   1.7
2023/05/18 10:27:32.000| -2843617.9807|  4805399.5095|  3073090.8714|  2| 35|  0.4203|  0.4970|  0.3223| -0.3673|  0.3223| -0.2953|  0.00|   1.5
2023/05/18 10:27:37.000| -2843618.0069|  4805399.3019|  3073090.8096|  2| 35|  0.4205|  0.4970|  0.3224| -0.3674|  0.3224| -0.2954|  5.00|   1.7
2023/05/18 10:27:42.000| -2843617.8925|  4805399.3720|  3073091.0586|  2| 35|  0.4206|  0.4969|  0.3224| -0.3674|  0.3224| -0.2955|  0.00|   1.4
2023/05/18 10:27:47.000| -2843617.8996|  4805399.4239|  3073091.0978|  2| 35|  0.4207|  0.4969|  0.3225| -0.3675|  0.3225| -0.2956|  5.00|   1.6
2023/05/18 10:27:52.000| -2843617.6243|  4805398.8445|  3073090.7987|  2| 35|  0.4208|  0.4968|  0.3225| -0.3675|  0.3225| -0.2957|  0.00|   0.0
2023/05/18 10:27:57.000| -2843617.7996|  4805399.1254|  3073091.0166|  2| 35|  0.4210|  0.4968|  0.3226| -0.3676|  0.3226| -0.2958|  5.00|   0.0
2023/05/18 10:28:02.000| -2843618.0525|  4805399.4534|  3073091.3933|  2| 34|  0.4222|  0.5042|  0.3275| -0.3713|  0.3300| -0.2988|  0.00|   1.6
2023/05/18 10:28:07.000| -2843617.9438|  4805399.4096|  3073091.4813|  2| 34|  0.4224|  0.5042|  0.3275| -0.3713|  0.3301| -0.2989|  5.00|   0.0
2023/05/18 10:28:12.000| -2843617.3262|  4805398.8772|  3073091.2500|  2| 34|  0.4225|  0.5041|  0.3276| -0.3714|  0.3301| -0.2990|  0.00|   1.6
2023/05/18 10:28:17.000| -2843617.2457|  4805398.7316|  3073091.1294|  2| 34|  0.4226|  0.5041|  0.3276| -0.3714|  0.3301| -0.2991|  5.00|   0.0
2023/05/18 10:28:22.000| -2843616.9019|  4805398.9172|  3073091.1696|  2| 34|  0.4227|  0.5040|  0.3277| -0.3715|  0.3301| -0.2992|  0.00|   0.0
2023/05/18 10:28:27.000| -2843617.0293|  4805398.8961|  3073091.2059|  2| 34|  0.4229|  0.5040|  0.3277| -0.3716|  0.3302| -0.2993|  5.00|   1.3
2023/05/18 10:28:32.000| -2843617.0043|  4805398.7337|  3073091.1029|  2| 34|  0.4230|  0.5039|  0.3278| -0.3716|  0.3302| -0.2994|  0.00|   0.0
2023/05/18 10:28:37.000| -2843617.0869|  4805398.8843|  3073091.0563|  2| 34|  0.4231|  0.5039|  0.3278| -0.3717|  0.3302| -0.2995|  5.00|   0.0
2023/05/18 10:28:42.000| -2843617.1091|  4805399.1709|  3073091.1567|  2| 34|  0.4232|  0.5038|  0.3279| -0.3717|  0.3303| -0.2996|  0.00|   0.0
2023/05/18 10:28:47.000| -2843616.8366|  4805398.9909|  3073090.9365|  2| 34|  0.4234|  0.5038|  0.3280| -0.3718|  0.3303| -0.2997|  5.00|   0.0
2023/05/18 10:28:52.000| -2843617.0352|  4805399.3267|  3073091.2164|  2| 34|  0.4235|  0.5037|  0.3280| -0.3719|  0.3303| -0.2998|  0.00|   0.0
2023/05/18 10:28:57.000| -2843617.0614|  4805399.5045|  3073091.3680|  2| 34|  0.4237|  0.5037|  0.3281| -0.3719|  0.3304| -0.2999|  5.00|   0.0
2023/05/18 10:29:02.000| -2843617.3631|  4805399.5195|  3073091.2969|  2| 34|  0.4238|  0.5037|  0.3281| -0.3720|  0.3304| -0.3000|  0.00|   1.3
2023/05/18 10:29:07.000| -2843617.4400|  4805399.7191|  3073091.3064|  2| 34|  0.4239|  0.5036|  0.3282| -0.3721|  0.3304| -0.3001|  5.00|   0.0
2023/05/18 10:29:12.000| -2843617.4485|  4805399.5423|  3073091.3957|  2| 34|  0.4240|  0.5036|  0.3282| -0.3721|  0.3305| -0.3002|  0.00|   1.1
2023/05/18 10:29:17.000| -2843617.3488|  4805399.4240|  3073091.3081|  2| 34|  0.4242|  0.5035|  0.3283| -0.3722|  0.3305| -0.3003|  5.00|   0.0
2023/05/18 10:29:22.000| -2843617.2972|  4805399.2548|  3073091.2879|  2| 34|  0.4243|  0.5035|  0.3283| -0.3722|  0.3305| -0.3004|  0.00|   0.0
2023/05/18 10:29:27.000| -2843617.2497|  4805399.1839|  3073091.2653|  2| 34|  0.4245|  0.5035|  0.3284| -0.3723|  0.3306| -0.3005|  5.00|   0.0
2023/05/18 10:29:32.000| -2843617.3914|  4805399.4848|  3073091.5297|  2| 34|  0.4225|  0.5031|  0.3268| -0.3714|  0.3298| -0.2983|  0.00|   0.0
2023/05/18 10:29:37.000| -2843617.3360|  4805399.3732|  3073091.4548|  2| 34|  0.4247|  0.5034|  0.3285| -0.3725|  0.3307| -0.3007|  5.00|   0.0
2023/05/18 10:29:42.000| -2843617.4851|  4805399.4577|  3073091.3684|  2| 34|  0.4248|  0.5033|  0.3285| -0.3725|  0.3307| -0.3008|  0.00|   1.0
2023/05/18 10:29:47.000| -2843617.3089|  4805399.2163|  3073091.3290|  2| 34|  0.4250|  0.5033|  0.3286| -0.3726|  0.3307| -0.3009|  5.00|   0.0
2023/05/18 10:29:52.000| -2843617.6637|  4805399.1999|  3073091.3273|  2| 34|  0.4251|  0.5032|  0.3287| -0.3726|  0.3308| -0.3010|  0.00|   1.2
2023/05/18 10:29:57.000| -2843617.6249|  4805399.1603|  3073091.3487|  2| 34|  0.4253|  0.5032|  0.3287| -0.3727|  0.3308| -0.3011|  5.00|   0.0
2023/05/18 10:30:02.000| -2843617.8862|  4805399.2591|  3073091.3420|  2| 34|  0.4254|  0.5031|  0.3288| -0.3728|  0.3308| -0.3012|  0.00|   1.1
2023/05/18 10:30:07.000| -2843618.0310|  4805399.2232|  3073091.3580|  2| 34|  0.4255|  0.5031|  0.3288| -0.3729|  0.3309| -0.3013|  5.00|   0.0
2023/05/18 10:30:12.000| -2843618.1013|  4805399.5520|  3073091.5853|  2| 34|  0.4257|  0.5031|  0.3289| -0.3729|  0.3309| -0.3014|  0.00|   1.1
2023/05/18 10:30:17.000| -2843617.8931|  4805399.4712|  3073091.5990|  2| 34|  0.4258|  0.5030|  0.3290| -0.3730|  0.3310| -0.3015|  5.00|   1.0
2023/05/18 10:30:22.000| -2843618.0853|  4805399.6617|  3073091.6142|  2| 34|  0.4259|  0.5030|  0.3290| -0.3731|  0.3310| -0.3016|  0.00|   1.1
2023/05/18 10:30:27.000| -2843618.2814|  4805399.8377|  3073091.7995|  2| 34|  0.4261|  0.5030|  0.3291| -0.3732|  0.3310| -0.3017|  5.00|   0.0
2023/05/18 10:30:32.000| -2843618.3113|  4805399.7296|  3073091.7755|  2| 34|  0.4262|  0.5029|  0.3291| -0.3732|  0.3311| -0.3018|  0.00|   1.1
2023/05/18 10:30:37.000| -2843618.2921|  4805399.5775|  3073091.5729|  2| 34|  0.4264|  0.5029|  0.3292| -0.3733|  0.3311| -0.3019|  5.00|   0.0
2023/05/18 10:30:42.000| -2843618.3667|  4805399.9595|  3073091.6625|  2| 34|  0.4265|  0.5028|  0.3292| -0.3734|  0.3311| -0.3020|  0.00|   1.1
2023/05/18 10:30:47.000| -2843618.2338|  4805399.9089|  3073091.5884|  2| 34|  0.4266|  0.5028|  0.3293| -0.3734|  0.3312| -0.3022|  5.00|   1.1
2023/05/18 10:30:52.000| -2843618.1195|  4805399.8773|  3073091.6201|  2| 34|  0.4268|  0.5028|  0.3293| -0.3735|  0.3312| -0.3022|  0.00|   1.2
2023/05/18 10:30:57.000| -2843618.2073|  4805399.7749|  3073091.5857|  2| 34|  0.4269|  0.5028|  0.3294| -0.3736|  0.3313| -0.3024|  5.00|   0.0
2023/05/18 10:31:02.000| -2843618.1939|  4805399.8580|  3073091.8075|  2| 34|  0.4271|  0.5027|  0.3295| -0.3736|  0.3313| -0.3025|  0.00|   1.1
2023/05/18 10:31:07.000| -2843617.9858|  4805399.6734|  3073091.6408|  2| 34|  0.4272|  0.5027|  0.3295| -0.3737|  0.3314| -0.3026|  5.00|   0.0
2023/05/18 10:31:12.000| -2843618.2966|  4805399.5647|  3073091.7689|  2| 34|  0.4269|  0.5026|  0.3294| -0.3740|  0.3315| -0.3023|  0.00|   0.0
2023/05/18 10:31:17.000| -2843618.3933|  4805399.7342|  3073091.8890|  2| 34|  0.4275|  0.5026|  0.3296| -0.3739|  0.3314| -0.3028|  5.00|   0.0
2023/05/18 10:31:22.000| -2843618.1990|  4805399.6177|  3073091.6407|  2| 34|  0.4276|  0.5026|  0.3297| -0.3740|  0.3315| -0.3029|  0.00|   1.1
2023/05/18 10:31:27.000| -2843618.1939|  4805399.6781|  3073091.7157|  2| 34|  0.4278|  0.5026|  0.3298| -0.3740|  0.3315| -0.3030|  5.00|   0.0
2023/05/18 10:31:32.000| -2843618.0367|  4805399.6845|  3073091.4200|  2| 34|  0.4279|  0.5025|  0.3298| -0.3741|  0.3316| -0.3031|  0.00|   0.0
2023/05/18 10:31:37.000| -2843617.8086|  4805399.4936|  3073091.2574|  2| 34|  0.4281|  0.5025|  0.3299| -0.3742|  0.3316| -0.3032|  5.00|   0.0
2023/05/18 10:31:42.000| -2843618.4317|  4805399.6625|  3073091.4708|  2| 34|  0.4282|  0.5024|  0.3299| -0.3743|  0.3316| -0.3033|  0.00|   0.0
2023/05/18 10:31:47.000| -2843618.4396|  4805399.7675|  3073091.5571|  2| 34|  0.4284|  0.5024|  0.3300| -0.3744|  0.3317| -0.3034|  5.00|   1.2
2023/05/18 10:31:52.000| -2843618.1772|  4805399.3726|  3073091.1700|  2| 34|  0.4285|  0.5024|  0.3300| -0.3744|  0.3317| -0.3035|  0.00|   0.0
2023/05/18 10:31:57.000| -2843618.3679|  4805399.5254|  3073091.3701|  2| 34|  0.4287|  0.5024|  0.3301| -0.3745|  0.3318| -0.3037|  5.00|   0.0
2023/05/18 10:32:02.000| -2843618.3231|  4805399.4202|  3073091.4226|  2| 34|  0.4288|  0.5023|  0.3302| -0.3746|  0.3318| -0.3038|  0.00|   0.0
2023/05/18 10:32:07.000| -2843618.1891|  4805399.1756|  3073091.1229|  2| 34|  0.4289|  0.5023|  0.3302| -0.3747|  0.3319| -0.3039|  5.00|   0.0
2023/05/18 10:32:12.000| -2843618.5329|  4805399.5485|  3073091.3852|  2| 34|  0.4291|  0.5023|  0.3303| -0.3747|  0.3319| -0.3040|  0.00|   0.0
2023/05/18 10:32:17.000| -2843618.5419|  4805399.4896|  3073091.5002|  2| 34|  0.4292|  0.5023|  0.3303| -0.3748|  0.3320| -0.3041|  5.00|   0.0
2023/05/18 10:32:22.000| -2843618.2559|  4805399.4473|  3073091.2967|  2| 34|  0.4294|  0.5022|  0.3304| -0.3749|  0.3320| -0.3042|  0.00|   0.0
2023/05/18 10:32:27.000| -2843618.0858|  4805399.5119|  3073091.2518|  2| 34|  0.4295|  0.5022|  0.3305| -0.3750|  0.3321| -0.3043|  5.00|   1.0
2023/05/18 10:32:32.000| -2843618.0165|  4805399.4996|  3073091.4216|  2| 34|  0.4297|  0.5022|  0.3305| -0.3751|  0.3321| -0.3044|  0.00|   0.0
2023/05/18 10:32:37.000| -2843618.0147|  4805399.5182|  3073091.3890|  2| 34|  0.4298|  0.5022|  0.3306| -0.3752|  0.3322| -0.3045|  5.00|   0.0
2023/05/18 10:32:42.000| -2843618.0419|  4805399.7284|  3073091.4784|  2| 34|  0.4300|  0.5021|  0.3306| -0.3752|  0.3322| -0.3046|  0.00|   1.0
2023/05/18 10:32:47.000| -2843618.2248|  4805399.8926|  3073091.5980|  2| 34|  0.4301|  0.5021|  0.3307| -0.3753|  0.3322| -0.3048|  5.00|   0.0
2023/05/18 10:32:52.000| -2843618.4499|  4805399.8758|  3073091.8574|  2| 34|  0.4303|  0.5021|  0.3307| -0.3754|  0.3323| -0.3049|  0.00|   1.0
2023/05/18 10:32:57.000| -2843618.4683|  4805399.8508|  3073091.6930|  2| 34|  0.4304|  0.5021|  0.3308| -0.3755|  0.3323| -0.3050|  5.00|   1.0
2023/05/18 10:33:02.000| -2843618.1100|  4805399.7056|  3073091.4135|  2| 34|  0.4306|  0.5020|  0.3309| -0.3756|  0.3324| -0.3051|  0.00|   0.0
2023/05/18 10:33:07.000| -2843618.2213|  4805400.0648|  3073091.5005|  2| 34|  0.4307|  0.5020|  0.3309| -0.3757|  0.3324| -0.3052|  5.00|   0.0
2023/05/18 10:33:12.000| -2843618.1572|  4805399.7862|  3073091.2672|  2| 34|  0.4309|  0.5020|  0.3310| -0.3758|  0.3325| -0.3053|  0.00|   0.0
2023/05/18 10:33:17.000| -2843618.1751|  4805399.9518|  3073091.2981|  2| 34|  0.4310|  0.5020|  0.3311| -0.3759|  0.3325| -0.3054|  5.00|   0.0
2023/05/18 10:33:22.000| -2843618.2249|  4805400.2464|  3073091.2366|  2| 34|  0.4312|  0.5020|  0.3311| -0.3759|  0.3326| -0.3056|  0.00|   1.0
2023/05/18 10:33:27.000| -2843618.3622|  4805400.2854|  3073091.2850|  2| 34|  0.4313|  0.5020|  0.3312| -0.3760|  0.3326| -0.3057|  5.00|   0.0
2023/05/18 10:33:32.000| -2843618.1361|  4805400.0780|  3073091.1514|  2| 34|  0.4315|  0.5019|  0.3312| -0.3761|  0.3327| -0.3058|  0.00|   1.1
2023/05/18 10:33:37.000| -2843618.1136|  4805399.9312|  3073091.0539|  2| 34|  0.4316|  0.5019|  0.3313| -0.3762|  0.3327| -0.3059|  5.00|   1.1
2023/05/18 10:33:42.000| -2843618.0902|  4805399.7959|  3073091.0990|  2| 34|  0.4314|  0.5018|  0.3312| -0.3765|  0.3329| -0.3057|  0.00|   1.1
2023/05/18 10:33:47.000| -2843617.9340|  4805399.5809|  3073091.0714|  2| 34|  0.4320|  0.5019|  0.3314| -0.3764|  0.3328| -0.3061|  5.00|   1.0
2023/05/18 10:33:52.000| -2843618.0739|  4805399.5834|  3073090.9921|  2| 34|  0.4321|  0.5019|  0.3315| -0.3765|  0.3329| -0.3062|  0.00|   1.2
2023/05/18 10:33:57.000| -2843617.8729|  4805399.6157|  3073090.9152|  2| 34|  0.4323|  0.5019|  0.3315| -0.3766|  0.3329| -0.3064|  5.00|   0.0
2023/05/18 10:34:02.000| -2843617.6146|  4805399.4811|  3073090.9381|  2| 34|  0.4324|  0.5018|  0.3316| -0.3767|  0.3330| -0.3065|  0.00|   0.0
2023/05/18 10:34:07.000| -2843617.7983|  4805399.5712|  3073091.1128|  2| 34|  0.4326|  0.5018|  0.3317| -0.3768|  0.3330| -0.3066|  5.00|   0.0
2023/05/18 10:34:12.000| -2843618.1421|  4805400.3299|  3073091.5690|  2| 34|  0.4327|  0.5018|  0.3317| -0.3768|  0.3331| -0.3067|  0.00|   0.0
2023/05/18 10:34:17.000| -2843618.1846|  4805400.3235|  3073091.4626|  2| 34|  0.4329|  0.5018|  0.3318| -0.3770|  0.3331| -0.3068|  5.00|   0.0
2023/05/18 10:34:22.000| -2843618.1825|  4805400.5194|  3073091.7108|  2| 34|  0.4330|  0.5018|  0.3318| -0.3770|  0.3332| -0.3069|  0.00|   0.0
2023/05/18 10:34:27.000| -2843617.8720|  4805400.2968|  3073091.4847|  2| 34|  0.4332|  0.5018|  0.3319| -0.3771|  0.3332| -0.3071|  5.00|   0.0
2023/05/18 10:34:32.000| -2843617.8416|  4805400.2296|  3073091.4954|  2| 34|  0.4333|  0.5018|  0.3320| -0.3772|  0.3333| -0.3072|  0.00|   1.1
2023/05/18 10:34:37.000| -2843617.7050|  4805400.1776|  3073091.3357|  2| 34|  0.4335|  0.5018|  0.3320| -0.3773|  0.3334| -0.3073|  5.00|   0.0
2023/05/18 10:34:42.000| -2843617.6968|  4805400.1792|  3073091.5314|  2| 34|  0.4337|  0.5017|  0.3321| -0.3774|  0.3334| -0.3074|  0.00|   1.1
2023/05/18 10:34:47.000| -2843617.6535|  4805399.7829|  3073091.5206|  2| 34|  0.4338|  0.5018|  0.3322| -0.3775|  0.3335| -0.3075|  5.00|   0.0
2023/05/18 10:34:52.000| -2843618.0754|  4805400.0017|  3073091.6346|  2| 34|  0.4340|  0.5017|  0.3322| -0.3776|  0.3335| -0.3076|  0.00|   1.0
2023/05/18 10:34:57.000| -2843618.0153|  4805399.8125|  3073091.5533|  2| 34|  0.4342|  0.5017|  0.3323| -0.3777|  0.3336| -0.3078|  5.00|   0.0
2023/05/18 10:35:02.000| -2843618.2424|  4805399.8273|  3073091.6885|  2| 34|  0.4343|  0.5017|  0.3323| -0.3778|  0.3336| -0.3079|  0.00|   1.0
2023/05/18 10:35:07.000| -2843618.0625|  4805399.9041|  3073091.7502|  2| 34|  0.4345|  0.5017|  0.3324| -0.3779|  0.3337| -0.3080|  5.00|   1.1
2023/05/18 10:35:12.000| -2843617.8828|  4805399.5161|  3073091.4966|  2| 34|  0.4280|  0.4991|  0.3318| -0.3729|  0.3321| -0.3055|  0.00|   1.1
2023/05/18 10:35:17.000| -2843617.8194|  4805399.4255|  3073091.3985|  2| 34|  0.4282|  0.4991|  0.3319| -0.3730|  0.3322| -0.3057|  5.00|   1.0
2023/05/18 10:35:22.000| -2843617.3354|  4805398.9347|  3073091.1251|  2| 35|  0.4243|  0.4961|  0.3315| -0.3687|  0.3309| -0.3042|  0.00|   1.1
2023/05/18 10:35:27.000| -2843617.4678|  4805398.9526|  3073091.2122|  2| 35|  0.4245|  0.4961|  0.3316| -0.3689|  0.3310| -0.3043|  5.00|   0.0
2023/05/18 10:35:32.000| -2843617.7645|  4805399.3741|  3073091.3511|  2| 35|  0.4246|  0.4961|  0.3317| -0.3690|  0.3310| -0.3045|  0.00|   1.1
2023/05/18 10:35:37.000| -2843617.7879|  4805399.3669|  3073091.3420|  2| 35|  0.4248|  0.4962|  0.3317| -0.3691|  0.3311| -0.3046|  5.00|   1.1
2023/05/18 10:35:42.000| -2843617.7011|  4805399.2955|  3073091.2481|  2| 35|  0.4250|  0.4962|  0.3318| -0.3693|  0.3312| -0.3048|  0.00|   1.0
2023/05/18 10:35:47.000| -2843617.5298|  4805399.2115|  3073091.1937|  2| 35|  0.4252|  0.4962|  0.3319| -0.3694|  0.3313| -0.3049|  5.00|   1.1
2023/05/18 10:35:52.000| -2843617.5804|  4805399.3592|  3073091.2768|  2| 35|  0.4254|  0.4962|  0.3319| -0.3695|  0.3313| -0.3050|  0.00|   0.0
2023/05/18 10:35:57.000| -2843617.8283|  4805399.5325|  3073091.4168|  2| 35|  0.4256|  0.4962|  0.3320| -0.3697|  0.3314| -0.3052|  5.00|   1.0
2023/05/18 10:36:02.000| -2843618.1822|  4805399.7642|  3073091.4696|  2| 35|  0.4258|  0.4962|  0.3321| -0.3698|  0.3315| -0.3053|  0.00|   0.0
2023/05/18 10:36:07.000| -2843618.0830|  4805399.6798|  3073091.4219|  2| 35|  0.4260|  0.4963|  0.3322| -0.3700|  0.3316| -0.3055|  5.00|   0.0
2023/05/18 10:36:12.000| -2843617.9128|  4805399.5757|  3073091.1057|  2| 35|  0.4261|  0.4963|  0.3322| -0.3701|  0.3316| -0.3056|  0.00|   1.0
2023/05/18 10:36:17.000| -2843617.8468|  4805399.4485|  3073091.1170|  2| 35|  0.4263|  0.4963|  0.3323| -0.3702|  0.3317| -0.3058|  5.00|   1.1
2023/05/18 10:36:22.000| -2843617.5316|  4805399.1661|  3073090.9588|  2| 35|  0.4265|  0.4964|  0.3324| -0.3704|  0.3318| -0.3059|  0.00|   0.0
2023/05/18 10:36:27.000| -2843617.4952|  4805399.1227|  3073091.0026|  2| 35|  0.4267|  0.4964|  0.3325| -0.3705|  0.3319| -0.3061|  5.00|   0.0
2023/05/18 10:36:32.000| -2843617.3291|  4805399.1259|  3073091.0186|  2| 35|  0.4269|  0.4964|  0.3325| -0.3706|  0.3319| -0.3062|  0.00|   0.0
2023/05/18 10:36:37.000| -2843617.2389|  4805399.2609|  3073090.8810|  2| 35|  0.4271|  0.4965|  0.3326| -0.3708|  0.3320| -0.3063|  5.00|   1.1
2023/05/18 10:36:42.000| -2843617.3624|  4805399.6690|  3073090.7566|  2| 35|  0.4273|  0.4965|  0.3327| -0.3709|  0.3321| -0.3065|  0.00|   1.0
2023/05/18 10:36:47.000| -2843617.4274|  4805399.7382|  3073090.8721|  2| 35|  0.4275|  0.4965|  0.3328| -0.3711|  0.3322| -0.3066|  5.00|   1.2
2023/05/18 10:36:52.000| -2843617.8142|  4805399.8052|  3073091.0762|  2| 34|  0.4316|  0.4993|  0.3332| -0.3753|  0.3335| -0.3082|  0.00|   1.2
2023/05/18 10:36:57.000| -2843617.8856|  4805399.9686|  3073091.1071|  2| 34|  0.4318|  0.4993|  0.3333| -0.3754|  0.3336| -0.3084|  5.00|   0.0
2023/05/18 10:37:02.000| -2843617.9312|  4805399.8215|  3073091.2882|  2| 34|  0.4319|  0.4993|  0.3333| -0.3755|  0.3336| -0.3085|  0.00|   1.1
2023/05/18 10:37:07.000| -2843618.2059|  4805400.1199|  3073091.5079|  2| 34|  0.4322|  0.4994|  0.3334| -0.3757|  0.3337| -0.3086|  5.00|   1.0
2023/05/18 10:37:12.000| -2843618.5813|  4805400.2076|  3073091.3113|  2| 34|  0.4323|  0.4994|  0.3334| -0.3758|  0.3338| -0.3088|  0.00|   1.1
2023/05/18 10:37:17.000| -2843618.6590|  4805400.3785|  3073091.4089|  2| 34|  0.4325|  0.4994|  0.3335| -0.3759|  0.3338| -0.3089|  5.00|   0.0
2023/05/18 10:37:22.000| -2843618.4046|  4805400.3220|  3073091.6350|  2| 34|  0.4389|  0.5017|  0.3341| -0.3807|  0.3353| -0.3113|  0.00|   1.0
2023/05/18 10:37:27.000| -2843618.0964|  4805399.8130|  3073091.3293|  2| 34|  0.4391|  0.5017|  0.3342| -0.3808|  0.3353| -0.3115|  5.00|   0.0
2023/05/18 10:37:32.000| -2843618.7012|  4805400.4050|  3073091.8496|  2| 34|  0.4393|  0.5017|  0.3343| -0.3809|  0.3354| -0.3116|  0.00|   1.1
2023/05/18 10:37:37.000| -2843618.5473|  4805400.2221|  3073091.7808|  2| 34|  0.4395|  0.5017|  0.3343| -0.3811|  0.3355| -0.3117|  5.00|   1.2
2023/05/18 10:37:42.000| -2843618.9486|  4805400.6012|  3073091.7512|  2| 34|  0.4396|  0.5017|  0.3344| -0.3812|  0.3355| -0.3118|  0.00|   1.0
2023/05/18 10:37:47.000| -2843618.8842|  4805400.6335|  3073091.8303|  2| 34|  0.4398|  0.5018|  0.3345| -0.3813|  0.3356| -0.3120|  5.00|   1.1
2023/05/18 10:37:52.000| -2843618.3595|  4805400.4396|  3073091.4824|  2| 34|  0.4400|  0.5017|  0.3345| -0.3814|  0.3356| -0.3121|  0.00|   1.0
2023/05/18 10:37:57.000| -2843618.4287|  4805400.3287|  3073091.4991|  2| 34|  0.4402|  0.5018|  0.3346| -0.3815|  0.3357| -0.3122|  5.00|   1.3
2023/05/18 10:38:02.000| -2843617.7963|  4805399.8610|  3073091.2459|  2| 34|  0.4403|  0.5018|  0.3347| -0.3816|  0.3358| -0.3123|  0.00|   1.2
2023/05/18 10:38:07.000| -2843617.5950|  4805399.4331|  3073091.1133|  2| 34|  0.4405|  0.5018|  0.3347| -0.3818|  0.3359| -0.3125|  5.00|   1.2
2023/05/18 10:38:12.000| -2843617.2458|  4805399.4266|  3073091.0248|  2| 34|  0.4407|  0.5018|  0.3348| -0.3818|  0.3359| -0.3126|  0.00|   1.0
2023/05/18 10:38:17.000| -2843617.4872|  4805399.5739|  3073091.1420|  2| 34|  0.4409|  0.5018|  0.3349| -0.3820|  0.3360| -0.3127|  5.00|   1.1
2023/05/18 10:38:22.000| -2843617.6176|  4805399.7463|  3073091.2379|  2| 34|  0.4410|  0.5018|  0.3349| -0.3821|  0.3360| -0.3128|  0.00|   1.1
2023/05/18 10:38:27.000| -2843617.8667|  4805399.8404|  3073091.2323|  2| 34|  0.4412|  0.5018|  0.3350| -0.3822|  0.3361| -0.3130|  5.00|   1.0
2023/05/18 10:38:32.000| -2843617.5140|  4805399.6759|  3073091.1611|  2| 34|  0.4414|  0.5018|  0.3351| -0.3823|  0.3362| -0.3131|  0.00|   1.0
2023/05/18 10:38:37.000| -2843617.5521|  4805399.7880|  3073091.2654|  2| 34|  0.4416|  0.5019|  0.3351| -0.3825|  0.3362| -0.3132|  5.00|   1.1
2023/05/18 10:38:42.000| -2843617.5352|  4805399.5218|  3073091.3366|  2| 35|  0.4379|  0.4993|  0.3349| -0.3786|  0.3352| -0.3120|  0.00|   1.0
2023/05/18 10:38:47.000| -2843617.5048|  4805399.5377|  3073091.2870|  2| 35|  0.4381|  0.4993|  0.3350| -0.3788|  0.3353| -0.3122|  5.00|   1.0
2023/05/18 10:38:52.000| -2843617.0465|  4805399.1767|  3073091.1223|  2| 35|  0.4382|  0.4993|  0.3350| -0.3789|  0.3354| -0.3123|  0.00|   1.1
2023/05/18 10:38:57.000| -2843617.0056|  4805399.1623|  3073091.0659|  2| 35|  0.4385|  0.4994|  0.3351| -0.3791|  0.3354| -0.3124|  5.00|   1.1
2023/05/18 10:39:02.000| -2843616.2935|  4805398.0660|  3073090.8715|  2| 35|  0.4386|  0.4994|  0.3352| -0.3792|  0.3355| -0.3126|  0.00|   1.0
2023/05/18 10:39:07.000| -2843616.4194|  4805398.2358|  3073090.9487|  2| 35|  0.4388|  0.4995|  0.3352| -0.3793|  0.3356| -0.3127|  5.00|   1.1
2023/05/18 10:39:12.000| -2843617.0274|  4805398.6674|  3073090.9301|  2| 35|  0.4390|  0.4995|  0.3353| -0.3795|  0.3357| -0.3128|  0.00|   1.2
2023/05/18 10:39:17.000| -2843617.1677|  4805398.8895|  3073091.0657|  2| 35|  0.4392|  0.4995|  0.3354| -0.3796|  0.3357| -0.3130|  5.00|   1.1
2023/05/18 10:39:22.000| -2843617.3222|  4805399.4822|  3073090.9124|  2| 35|  0.4394|  0.4995|  0.3354| -0.3797|  0.3358| -0.3131|  0.00|   1.1
2023/05/18 10:39:27.000| -2843617.1261|  4805399.2714|  3073090.8174|  2| 35|  0.4396|  0.4996|  0.3355| -0.3799|  0.3359| -0.3133|  5.00|   1.1
2023/05/18 10:39:32.000| -2843616.5779|  4805398.5292|  3073090.6233|  2| 35|  0.4340|  0.4977|  0.3352| -0.3760|  0.3349| -0.3115|  0.00|   1.0
2023/05/18 10:39:37.000| -2843616.4912|  4805398.4731|  3073090.5863|  2| 35|  0.4343|  0.4978|  0.3353| -0.3762|  0.3350| -0.3117|  5.00|   1.1
2023/05/18 10:39:42.000| -2843617.4187|  4805399.0713|  3073091.0111|  2| 35|  0.4344|  0.4978|  0.3353| -0.3763|  0.3351| -0.3118|  0.00|   1.1
2023/05/18 10:39:47.000| -2843617.5591|  4805399.1974|  3073091.1103|  2| 35|  0.4347|  0.4979|  0.3354| -0.3765|  0.3352| -0.3120|  5.00|   1.1
2023/05/18 10:39:52.000| -2843618.3821|  4805399.8584|  3073091.4171|  2| 35|  0.4349|  0.4979|  0.3355| -0.3766|  0.3352| -0.3121|  0.00|   1.0
2023/05/18 10:39:57.000| -2843618.4778|  4805399.9939|  3073091.5534|  2| 35|  0.4351|  0.4980|  0.3356| -0.3768|  0.3353| -0.3123|  5.00|   1.1
2023/05/18 10:40:02.000| -2843618.2877|  4805400.2334|  3073091.5475|  2| 35|  0.4353|  0.4980|  0.3356| -0.3769|  0.3354| -0.3124|  0.00|   1.1
2023/05/18 10:40:07.000| -2843618.4170|  4805400.2711|  3073091.6984|  2| 35|  0.4355|  0.4981|  0.3357| -0.3771|  0.3355| -0.3126|  5.00|   1.2
2023/05/18 10:40:12.000| -2843618.0633|  4805399.5566|  3073091.1998|  2| 35|  0.4357|  0.4981|  0.3358| -0.3772|  0.3356| -0.3127|  0.00|   1.0
2023/05/18 10:40:17.000| -2843617.8882|  4805399.5350|  3073091.1248|  2| 35|  0.4359|  0.4982|  0.3359| -0.3774|  0.3357| -0.3129|  5.00|   1.1
2023/05/18 10:40:22.000| -2843617.3040|  4805399.0985|  3073090.9853|  2| 35|  0.4358|  0.4953|  0.3353| -0.3764|  0.3342| -0.3125|  0.00|   1.1
2023/05/18 10:40:27.000| -2843617.3907|  4805398.9786|  3073090.9728|  2| 35|  0.4363|  0.4983|  0.3360| -0.3777|  0.3359| -0.3132|  5.00|   1.1
2023/05/18 10:40:32.000| -2843617.8622|  4805399.2377|  3073091.0683|  2| 35|  0.4365|  0.4983|  0.3361| -0.3779|  0.3359| -0.3134|  0.00|   1.1
2023/05/18 10:40:37.000| -2843617.6365|  4805399.2823|  3073091.1100|  2| 35|  0.4368|  0.4984|  0.3362| -0.3781|  0.3361| -0.3135|  5.00|   1.1
2023/05/18 10:40:42.000| -2843617.9068|  4805399.6055|  3073090.9569|  2| 35|  0.4370|  0.4984|  0.3362| -0.3782|  0.3361| -0.3137|  0.00|   1.1
2023/05/18 10:40:47.000| -2843617.9246|  4805399.7003|  3073090.9381|  2| 35|  0.4372|  0.4985|  0.3363| -0.3784|  0.3362| -0.3138|  5.00|   0.0
2023/05/18 10:40:52.000| -2843617.9829|  4805399.8574|  3073091.0381|  2| 35|  0.4374|  0.4985|  0.3364| -0.3785|  0.3363| -0.3140|  0.00|   1.2
2023/05/18 10:40:57.000| -2843617.7791|  4805399.6000|  3073090.9977|  2| 35|  0.4376|  0.4986|  0.3365| -0.3787|  0.3364| -0.3141|  5.00|   1.2
2023/05/18 10:41:02.000| -2843617.9587|  4805399.5476|  3073091.1282|  2| 35|  0.4378|  0.4986|  0.3365| -0.3789|  0.3365| -0.3143|  0.00|   1.1
2023/05/18 10:41:07.000| -2843617.9376|  4805399.5731|  3073091.1585|  2| 35|  0.4380|  0.4987|  0.3366| -0.3791|  0.3366| -0.3145|  5.00|   1.1
2023/05/18 10:41:12.000| -2843618.3490|  4805400.2779|  3073091.7583|  2| 35|  0.4379|  0.4958|  0.3361| -0.3780|  0.3351| -0.3141|  0.00|   1.0
2023/05/18 10:41:17.000| -2843618.2275|  4805400.2059|  3073091.7377|  2| 35|  0.4385|  0.4988|  0.3368| -0.3794|  0.3368| -0.3148|  5.00|   1.0
2023/05/18 10:41:22.000| -2843618.0090|  4805400.3093|  3073091.5316|  2| 35|  0.4387|  0.4989|  0.3368| -0.3795|  0.3368| -0.3149|  0.00|   1.0
2023/05/18 10:41:27.000| -2843617.9191|  4805400.1889|  3073091.5308|  2| 35|  0.4389|  0.4989|  0.3369| -0.3797|  0.3370| -0.3151|  5.00|   1.0
2023/05/18 10:41:32.000| -2843617.6840|  4805400.1592|  3073091.1628|  2| 35|  0.4391|  0.4990|  0.3370| -0.3799|  0.3370| -0.3152|  0.00|   1.1
2023/05/18 10:41:37.000| -2843617.7624|  4805400.1282|  3073091.1188|  2| 35|  0.4393|  0.4990|  0.3371| -0.3801|  0.3371| -0.3154|  5.00|   0.0
2023/05/18 10:41:42.000| -2843617.7963|  4805400.0926|  3073091.1621|  2| 35|  0.4395|  0.4991|  0.3371| -0.3802|  0.3372| -0.3155|  0.00|   1.1
2023/05/18 10:41:47.000| -2843617.8386|  4805400.0478|  3073091.2373|  2| 35|  0.4398|  0.4992|  0.3372| -0.3804|  0.3373| -0.3157|  5.00|   1.0
2023/05/18 10:41:52.000| -2843618.3772|  4805400.3359|  3073091.5686|  2| 35|  0.4400|  0.4992|  0.3373| -0.3805|  0.3374| -0.3159|  0.00|   1.1
2023/05/18 10:41:57.000| -2843618.3638|  4805400.2467|  3073091.6160|  2| 35|  0.4402|  0.4993|  0.3374| -0.3807|  0.3375| -0.3160|  5.00|   1.1
2023/05/18 10:42:02.000| -2843618.6459|  4805400.3756|  3073091.7241|  2| 35|  0.4404|  0.4993|  0.3374| -0.3809|  0.3376| -0.3162|  0.00|   1.0
2023/05/18 10:42:07.000| -2843618.8024|  4805400.3776|  3073091.7677|  2| 35|  0.4406|  0.4994|  0.3375| -0.3811|  0.3377| -0.3163|  5.00|   1.1
2023/05/18 10:42:12.000| -2843618.6005|  4805400.2196|  3073091.6559|  2| 35|  0.4408|  0.4994|  0.3376| -0.3812|  0.3378| -0.3165|  0.00|   1.1
2023/05/18 10:42:17.000| -2843618.6380|  4805400.3021|  3073091.6876|  2| 35|  0.4411|  0.4995|  0.3377| -0.3814|  0.3379| -0.3167|  5.00|   0.0
2023/05/18 10:42:22.000| -2843618.4039|  4805400.1321|  3073091.5425|  2| 36|  0.4301|  0.4900|  0.3236| -0.3688|  0.3237| -0.3014|  0.00|   1.0
2023/05/18 10:42:27.000| -2843618.4506|  4805400.1575|  3073091.5932|  2| 36|  0.4304|  0.4900|  0.3236| -0.3689|  0.3238| -0.3015|  5.00|   1.1
2023/05/18 10:42:32.000| -2843618.3045|  4805400.1947|  3073091.5801|  2| 36|  0.4305|  0.4901|  0.3237| -0.3691|  0.3239| -0.3017|  0.00|   1.0
2023/05/18 10:42:37.000| -2843618.2608|  4805400.0391|  3073091.4209|  2| 36|  0.4307|  0.4901|  0.3238| -0.3692|  0.3239| -0.3018|  5.00|   0.0
2023/05/18 10:42:42.000| -2843618.0036|  4805400.2747|  3073091.3226|  2| 36|  0.4309|  0.4902|  0.3238| -0.3694|  0.3240| -0.3019|  0.00|   1.1
2023/05/18 10:42:47.000| -2843618.3358|  4805400.5561|  3073091.5086|  2| 36|  0.4311|  0.4902|  0.3239| -0.3695|  0.3241| -0.3021|  5.00|   0.0
2023/05/18 10:42:52.000| -2843618.4800|  4805400.6309|  3073091.8195|  2| 36|  0.4313|  0.4903|  0.3239| -0.3697|  0.3242| -0.3022|  0.00|   1.1
2023/05/18 10:42:57.000| -2843618.3525|  4805400.4680|  3073091.6703|  2| 36|  0.4315|  0.4903|  0.3240| -0.3698|  0.3242| -0.3023|  5.00|   0.0
2023/05/18 10:43:02.000| -2843619.2049|  4805400.8173|  3073092.2072|  2| 36|  0.4317|  0.4904|  0.3240| -0.3700|  0.3243| -0.3025|  0.00|   1.0
2023/05/18 10:43:07.000| -2843618.9872|  4805400.6612|  3073092.0822|  2| 36|  0.4319|  0.4904|  0.3241| -0.3702|  0.3244| -0.3026|  5.00|   0.0
2023/05/18 10:43:12.000| -2843618.9931|  4805400.3011|  3073091.8599|  2| 36|  0.4321|  0.4905|  0.3241| -0.3703|  0.3245| -0.3027|  0.00|   1.0
2023/05/18 10:43:17.000| -2843618.9475|  4805400.1438|  3073091.8302|  2| 36|  0.4323|  0.4905|  0.3242| -0.3705|  0.3245| -0.3029|  5.00|   0.0
2023/05/18 10:43:22.000| -2843617.9810|  4805399.5637|  3073091.2131|  2| 36|  0.4325|  0.4906|  0.3242| -0.3706|  0.3246| -0.3030|  0.00|   1.0
2023/05/18 10:43:27.000| -2843618.0006|  4805399.5621|  3073091.1128|  2| 36|  0.4327|  0.4906|  0.3243| -0.3708|  0.3247| -0.3031|  5.00|   0.0
2023/05/18 10:43:32.000| -2843617.3873|  4805399.0785|  3073090.9811|  2| 36|  0.4329|  0.4907|  0.3243| -0.3709|  0.3248| -0.3033|  0.00|   1.1
2023/05/18 10:43:37.000| -2843617.3724|  4805398.9336|  3073090.9843|  2| 36|  0.4331|  0.4908|  0.3244| -0.3711|  0.3249| -0.3034|  5.00|   1.0
2023/05/18 10:43:42.000| -2843617.0948|  4805398.9756|  3073090.8437|  2| 36|  0.4333|  0.4908|  0.3245| -0.3712|  0.3249| -0.3035|  0.00|   1.0
2023/05/18 10:43:47.000| -2843617.1305|  4805398.8564|  3073090.8809|  2| 36|  0.4335|  0.4909|  0.3245| -0.3714|  0.3250| -0.3037|  5.00|   0.0
2023/05/18 10:43:52.000| -2843617.2828|  4805398.5885|  3073090.7607|  2| 36|  0.4337|  0.4909|  0.3246| -0.3715|  0.3251| -0.3038|  0.00|   0.0
2023/05/18 10:43:57.000| -2843617.3806|  4805398.5151|  3073090.7346|  2| 36|  0.4339|  0.4910|  0.3246| -0.3717|  0.3252| -0.3040|  5.00|   0.0
2023/05/18 10:44:02.000| -2843617.6727|  4805399.0718|  3073091.2541|  2| 36|  0.4341|  0.4910|  0.3247| -0.3718|  0.3252| -0.3041|  0.00|   1.0
2023/05/18 10:44:07.000| -2843617.7916|  4805399.1351|  3073091.2329|  2| 36|  0.4343|  0.4911|  0.3247| -0.3720|  0.3253| -0.3042|  5.00|   0.0
2023/05/18 10:44:12.000| -2843617.8701|  4805399.4184|  3073091.3888|  2| 36|  0.4345|  0.4911|  0.3248| -0.3722|  0.3254| -0.3043|  0.00|   1.0
2023/05/18 10:44:17.000| -2843617.9172|  4805399.5061|  3073091.4321|  2| 36|  0.4347|  0.4912|  0.3248| -0.3723|  0.3255| -0.3045|  5.00|   0.0
2023/05/18 10:44:22.000| -2843617.9274|  4805399.8187|  3073091.5151|  2| 36|  0.4349|  0.4912|  0.3249| -0.3725|  0.3255| -0.3046|  0.00|   1.0
2023/05/18 10:44:27.000| -2843617.6965|  4805399.6432|  3073091.3162|  2| 36|  0.4352|  0.4913|  0.3250| -0.3727|  0.3256| -0.3048|  5.00|   0.0
2023/05/18 10:44:32.000| -2843617.8606|  4805399.8234|  3073091.4327|  2| 36|  0.4353|  0.4914|  0.3250| -0.3728|  0.3257| -0.3049|  0.00|   1.0
2023/05/18 10:44:37.000| -2843617.9588|  4805399.9999|  3073091.4799|  2| 36|  0.4356|  0.4914|  0.3251| -0.3730|  0.3258| -0.3050|  5.00|   0.0
2023/05/18 10:44:42.000| -2843618.0692|  4805400.0679|  3073091.3934|  2| 36|  0.4358|  0.4915|  0.3251| -0.3731|  0.3259| -0.3052|  0.00|   1.0
2023/05/18 10:44:47.000| -2843618.0183|  4805399.9529|  3073091.3232|  2| 36|  0.4360|  0.4916|  0.3252| -0.3733|  0.3259| -0.3053|  5.00|   1.0
2023/05/18 10:44:52.000| -2843618.1360|  4805399.9723|  3073091.5444|  2| 36|  0.4362|  0.4916|  0.3252| -0.3734|  0.3260| -0.3054|  0.00|   1.0
2023/05/18 10:44:57.000| -2843617.9044|  4805399.6380|  3073091.3172|  2| 36|  0.4364|  0.4917|  0.3253| -0.3736|  0.3261| -0.3056|  5.00|   1.0
2023/05/18 10:45:02.000| -2843618.1238|  4805399.9200|  3073091.5224|  2| 36|  0.4366|  0.4917|  0.3253| -0.3738|  0.3262| -0.3057|  0.00|   1.0
2023/05/18 10:45:07.000| -2843618.1016|  4805399.9377|  3073091.4842|  2| 36|  0.4368|  0.4918|  0.3254| -0.3740|  0.3263| -0.3059|  5.00|   0.0
2023/05/18 10:45:12.000| -2843618.2352|  4805399.9504|  3073091.4270|  2| 36|  0.4370|  0.4919|  0.3254| -0.3741|  0.3263| -0.3060|  0.00|   1.0
2023/05/18 10:45:17.000| -2843618.3623|  4805400.0537|  3073091.5057|  2| 36|  0.4372|  0.4919|  0.3255| -0.3743|  0.3264| -0.3061|  5.00|   0.0
2023/05/18 10:45:22.000| -2843618.1895|  4805400.0091|  3073091.4103|  2| 36|  0.4374|  0.4920|  0.3256| -0.3744|  0.3265| -0.3063|  0.00|   1.1
2023/05/18 10:45:27.000| -2843618.2906|  4805400.0221|  3073091.4097|  2| 36|  0.4376|  0.4921|  0.3256| -0.3746|  0.3266| -0.3064|  5.00|   1.0
2023/05/18 10:45:32.000| -2843617.9992|  4805399.7677|  3073091.1957|  2| 36|  0.4378|  0.4921|  0.3257| -0.3748|  0.3267| -0.3065|  0.00|   1.1
2023/05/18 10:45:37.000| -2843618.1631|  4805399.8449|  3073091.3556|  2| 36|  0.4381|  0.4922|  0.3257| -0.3749|  0.3267| -0.3067|  5.00|   1.0
2023/05/18 10:45:42.000| -2843617.7620|  4805399.5789|  3073091.2353|  2| 36|  0.4382|  0.4922|  0.3258| -0.3751|  0.3268| -0.3068|  0.00|   1.1
2023/05/18 10:45:47.000| -2843617.7242|  4805399.6220|  3073091.1656|  2| 36|  0.4385|  0.4923|  0.3258| -0.3753|  0.3269| -0.3070|  5.00|   1.1
2023/05/18 10:45:52.000| -2843617.4233|  4805399.0573|  3073090.9557|  2| 36|  0.4387|  0.4924|  0.3259| -0.3754|  0.3270| -0.3071|  0.00|   1.1
2023/05/18 10:45:57.000| -2843617.1708|  4805398.9128|  3073090.7484|  2| 36|  0.4389|  0.4925|  0.3260| -0.3756|  0.3271| -0.3072|  5.00|   1.2
2023/05/18 10:46:02.000| -2843617.3962|  4805399.0959|  3073091.0808|  2| 36|  0.4391|  0.4925|  0.3260| -0.3758|  0.3271| -0.3074|  0.00|   0.0
2023/05/18 10:46:07.000| -2843617.1681|  4805398.9454|  3073090.9717|  2| 36|  0.4393|  0.4926|  0.3261| -0.3759|  0.3272| -0.3075|  5.00|   1.2
2023/05/18 10:46:12.000| -2843616.9839|  4805398.8657|  3073090.8155|  2| 36|  0.4395|  0.4926|  0.3261| -0.3761|  0.3273| -0.3077|  0.00|   1.2
2023/05/18 10:46:17.000| -2843617.1621|  4805399.1682|  3073091.0082|  2| 36|  0.4397|  0.4927|  0.3262| -0.3763|  0.3274| -0.3078|  5.00|   1.2
2023/05/18 10:46:22.000| -2843616.8818|  4805399.2049|  3073090.8732|  2| 36|  0.4399|  0.4928|  0.3262| -0.3764|  0.3275| -0.3079|  0.00|   1.2
2023/05/18 10:46:27.000| -2843616.8663|  4805399.1524|  3073090.8939|  2| 36|  0.4402|  0.4929|  0.3263| -0.3766|  0.3276| -0.3081|  5.00|   0.0
2023/05/18 10:46:32.000| -2843617.2484|  4805399.3608|  3073090.9860|  2| 36|  0.4404|  0.4929|  0.3263| -0.3768|  0.3276| -0.3082|  0.00|   1.1
2023/05/18 10:46:37.000| -2843617.1016|  4805399.3770|  3073091.0256|  2| 36|  0.4406|  0.4930|  0.3264| -0.3770|  0.3277| -0.3084|  5.00|   1.0
2023/05/18 10:46:42.000| -2843617.0510|  4805399.2440|  3073091.0014|  2| 36|  0.4408|  0.4931|  0.3264| -0.3771|  0.3278| -0.3085|  0.00|   1.1
2023/05/18 10:46:47.000| -2843617.0398|  4805399.2214|  3073091.0181|  2| 36|  0.4410|  0.4932|  0.3265| -0.3773|  0.3279| -0.3086|  5.00|   0.0
2023/05/18 10:46:52.000| -2843617.5309|  4805399.2927|  3073091.2976|  2| 36|  0.4412|  0.4932|  0.3266| -0.3774|  0.3280| -0.3088|  0.00|   1.1
2023/05/18 10:46:57.000| -2843617.1864|  4805399.0105|  3073091.0883|  2| 36|  0.4414|  0.4933|  0.3266| -0.3776|  0.3281| -0.3089|  5.00|   1.2
2023/05/18 10:47:02.000| -2843616.9644|  4805398.8449|  3073090.8212|  2| 36|  0.4416|  0.4933|  0.3267| -0.3778|  0.3281| -0.3091|  0.00|   1.1
2023/05/18 10:47:07.000| -2843616.7918|  4805398.7233|  3073090.7391|  2| 36|  0.4419|  0.4934|  0.3267| -0.3780|  0.3282| -0.3092|  5.00|   0.0
2023/05/18 10:47:12.000| -2843616.9138|  4805398.8880|  3073091.0800|  2| 36|  0.4421|  0.4935|  0.3268| -0.3781|  0.3283| -0.3093|  0.00|   1.1
2023/05/18 10:47:17.000| -2843616.9420|  4805399.0444|  3073091.0754|  2| 36|  0.4423|  0.4936|  0.3268| -0.3783|  0.3284| -0.3095|  5.00|   0.0
2023/05/18 10:47:22.000| -2843617.1136|  4805399.1880|  3073091.2315|  2| 36|  0.4425|  0.4936|  0.3269| -0.3785|  0.3285| -0.3096|  0.00|   1.1
2023/05/18 10:47:27.000| -2843617.2246|  4805399.4352|  3073091.3632|  2| 36|  0.4427|  0.4937|  0.3270| -0.3787|  0.3286| -0.3098|  5.00|   1.3
2023/05/18 10:47:32.000| -2843617.5437|  4805399.4485|  3073091.2837|  2| 36|  0.4429|  0.4938|  0.3270| -0.3788|  0.3286| -0.3099|  0.00|   1.2
2023/05/18 10:47:37.000| -2843617.5075|  4805399.3992|  3073091.2975|  2| 36|  0.4432|  0.4939|  0.3271| -0.3790|  0.3287| -0.3101|  5.00|   1.2
2023/05/18 10:47:42.000| -2843618.2763|  4805400.0862|  3073091.7095|  2| 36|  0.4434|  0.4939|  0.3271| -0.3792|  0.3288| -0.3102|  0.00|   1.2
2023/05/18 10:47:47.000| -2843618.4364|  4805400.0689|  3073091.7910|  2| 35|  0.4468|  0.5045|  0.3368| -0.3865|  0.3411| -0.3171|  5.00|   1.3
2023/05/18 10:47:52.000| -2843617.8296|  4805399.9719|  3073091.4174|  2| 35|  0.4470|  0.5045|  0.3369| -0.3866|  0.3412| -0.3173|  0.00|   1.2
2023/05/18 10:47:57.000| -2843617.7742|  4805399.9967|  3073091.4320|  2| 35|  0.4472|  0.5046|  0.3369| -0.3868|  0.3413| -0.3174|  5.00|   1.5
2023/05/18 10:48:02.000| -2843617.8284|  4805400.0128|  3073091.3750|  2| 35|  0.4475|  0.5047|  0.3370| -0.3870|  0.3413| -0.3175|  0.00|   1.2
2023/05/18 10:48:07.000| -2843617.8067|  4805399.9837|  3073091.3447|  2| 35|  0.4477|  0.5048|  0.3370| -0.3872|  0.3414| -0.3177|  5.00|   1.3
2023/05/18 10:48:12.000| -2843617.5906|  4805399.7573|  3073091.3121|  2| 35|  0.4479|  0.5048|  0.3370| -0.3873|  0.3415| -0.3178|  0.00|   1.1
2023/05/18 10:48:17.000| -2843617.7025|  4805399.8706|  3073091.3922|  2| 35|  0.4481|  0.5049|  0.3371| -0.3875|  0.3415| -0.3180|  5.00|   1.4
2023/05/18 10:48:22.000| -2843617.4559|  4805399.5848|  3073091.3601|  2| 35|  0.4484|  0.5050|  0.3371| -0.3877|  0.3416| -0.3181|  0.00|   1.2
2023/05/18 10:48:27.000| -2843617.1473|  4805399.3971|  3073091.3422|  2| 35|  0.4486|  0.5050|  0.3372| -0.3879|  0.3417| -0.3183|  5.00|   1.2
2023/05/18 10:48:32.000| -2843617.0942|  4805399.3792|  3073091.4933|  2| 35|  0.4488|  0.5051|  0.3372| -0.3881|  0.3417| -0.3184|  0.00|   1.1
2023/05/18 10:48:37.000| -2843617.0938|  4805399.1375|  3073091.3361|  2| 35|  0.4491|  0.5052|  0.3373| -0.3883|  0.3418| -0.3186|  5.00|   1.3
2023/05/18 10:48:42.000| -2843617.4921|  4805399.3534|  3073091.4757|  2| 35|  0.4493|  0.5052|  0.3373| -0.3884|  0.3419| -0.3187|  0.00|   1.1
2023/05/18 10:48:47.000| -2843617.2594|  4805399.2475|  3073091.3802|  2| 35|  0.4495|  0.5053|  0.3373| -0.3886|  0.3420| -0.3188|  5.00|   1.2
2023/05/18 10:48:52.000| -2843617.8618|  4805399.8051|  3073091.8126|  2| 35|  0.4497|  0.5054|  0.3374| -0.3888|  0.3420| -0.3190|  0.00|   1.1
2023/05/18 10:48:57.000| -2843617.9802|  4805400.0160|  3073091.8444|  2| 35|  0.4500|  0.5055|  0.3374| -0.3890|  0.3421| -0.3191|  5.00|   1.3
2023/05/18 10:49:02.000| -2843618.1154|  4805400.2548|  3073092.0149|  2| 35|  0.4502|  0.5055|  0.3375| -0.3891|  0.3422| -0.3193|  0.00|   1.1
